{"type":"FeatureCollection", "features": [
{"type":"Feature","geometry":{"type":"Point","coordinates":[106.15,11.32]},"properties":{"NAME":"Tây Ninh","POP_MAX":126370}},
{"type":"Feature","geometry":{"type":"Point","coordinates":[106.76,21.85]},"properties":{"NAME":"Lạng Sơn","POP_MAX":148000}},
{"type":"Feature","geometry":{"type":"Point","coordinates":[106.33,20.45]},"properties":{"NAME":"Thái Bình","POP_MAX":210000}},
{"type":"Feature","geometry":{"type":"Point","coordinates":[106.65,10.97]},"properties":{"NAME":"Thu Dau Mot","POP_MAX":244277}},
{"type":"Feature","geometry":{"type":"Point","coordinates":[105.64,10.47]},"properties":{"NAME":"Cao Lãnh","POP_MAX":149837}},
{"type":"Feature","geometry":{"type":"Point","coordinates":[106.33,9.93]},"properties":{"NAME":"Tra Vinh","POP_MAX":131360}},
{"type":"Feature","geometry":{"type":"Point","coordinates":[105.96,10.26]},"properties":{"NAME":"Vĩnh Long","POP_MAX":103314}},
{"type":"Feature","geometry":{"type":"Point","coordinates":[30.4,40.77]},"properties":{"NAME":"Sakarya","POP_MAX":286787}},
{"type":"Feature","geometry":{"type":"Point","coordinates":[36.12,36.23]},"properties":{"NAME":"Antakya","POP_MAX":154803}},
{"type":"Feature","geometry":{"type":"Point","coordinates":[36.56,40.31]},"properties":{"NAME":"Tokat","POP_MAX":129702}},
{"type":"Feature","geometry":{"type":"Point","coordinates":[41.93,37.94]},"properties":{"NAME":"Siirt","POP_MAX":114034}},
{"type":"Feature","geometry":{"type":"Point","coordinates":[36.11,32.63]},"properties":{"NAME":"Dar'a","POP_MAX":146481}},
{"type":"Feature","geometry":{"type":"Point","coordinates":[22.89,47.79]},"properties":{"NAME":"Satu Mare","POP_MAX":112490}},
{"type":"Feature","geometry":{"type":"Point","coordinates":[24.38,45.11]},"properties":{"NAME":"Rimnicu Vilcea","POP_MAX":107558}},
{"type":"Feature","geometry":{"type":"Point","coordinates":[26.38,46.94]},"properties":{"NAME":"Piatra-Neamt","POP_MAX":102688}},
{"type":"Feature","geometry":{"type":"Point","coordinates":[27.97,45.29]},"properties":{"NAME":"Brăila","POP_MAX":213569}},
{"type":"Feature","geometry":{"type":"Point","coordinates":[100.06,13.82]},"properties":{"NAME":"Nakhon Pathom","POP_MAX":117927}},
{"type":"Feature","geometry":{"type":"Point","coordinates":[101.25,6.86]},"properties":{"NAME":"Pattani","POP_MAX":150000}},
{"type":"Feature","geometry":{"type":"Point","coordinates":[31.39,-26.5]},"properties":{"NAME":"Manzini","POP_MAX":110537}},
{"type":"Feature","geometry":{"type":"Point","coordinates":[5.92,51.99]},"properties":{"NAME":"Arnhem","POP_MAX":141674}},
{"type":"Feature","geometry":{"type":"Point","coordinates":[5.68,50.85]},"properties":{"NAME":"Maastricht","POP_MAX":122378}},
{"type":"Feature","geometry":{"type":"Point","coordinates":[6.1,52.52]},"properties":{"NAME":"Zwolle","POP_MAX":111805}},
{"type":"Feature","geometry":{"type":"Point","coordinates":[5.32,51.68]},"properties":{"NAME":"'s-Hertogenbosch","POP_MAX":134520}},
{"type":"Feature","geometry":{"type":"Point","coordinates":[11.35,59.91]},"properties":{"NAME":"Bærum","POP_MAX":113659}},
{"type":"Feature","geometry":{"type":"Point","coordinates":[81.23,8.57]},"properties":{"NAME":"Trincomalee","POP_MAX":108420}},
{"type":"Feature","geometry":{"type":"Point","coordinates":[7.49,5.53]},"properties":{"NAME":"Umuahia","POP_MAX":264662}},
{"type":"Feature","geometry":{"type":"Point","coordinates":[7.92,5.04]},"properties":{"NAME":"Uyo","POP_MAX":554906}},
{"type":"Feature","geometry":{"type":"Point","coordinates":[7.03,5.49]},"properties":{"NAME":"Owerri","POP_MAX":215038}},
{"type":"Feature","geometry":{"type":"Point","coordinates":[125.76,38.51]},"properties":{"NAME":"Sariwon","POP_MAX":154942}},
{"type":"Feature","geometry":{"type":"Point","coordinates":[101.55,3.07]},"properties":{"NAME":"Shah Alam","POP_MAX":481654}},
{"type":"Feature","geometry":{"type":"Point","coordinates":[-89.29,13.67]},"properties":{"NAME":"Nueva San Salvador","POP_MAX":124694}},
{"type":"Feature","geometry":{"type":"Point","coordinates":[31.01,30.55]},"properties":{"NAME":"Shibin el Kom","POP_MAX":182900}},
{"type":"Feature","geometry":{"type":"Point","coordinates":[31.18,30.47]},"properties":{"NAME":"Benha","POP_MAX":167029}},
{"type":"Feature","geometry":{"type":"Point","coordinates":[31.52,30.58]},"properties":{"NAME":"Zagazig","POP_MAX":285097}},
{"type":"Feature","geometry":{"type":"Point","coordinates":[30.94,31.11]},"properties":{"NAME":"Kafr el Sheikh","POP_MAX":143970}},
{"type":"Feature","geometry":{"type":"Point","coordinates":[48,29.33]},"properties":{"NAME":"Hawalli","POP_MAX":164212}},
{"type":"Feature","geometry":{"type":"Point","coordinates":[-90.02,14.92]},"properties":{"NAME":"El Progreso","POP_MAX":147197}},
{"type":"Feature","geometry":{"type":"Point","coordinates":[-70.69,19.79]},"properties":{"NAME":"Puerto Plata","POP_MAX":119897}},
{"type":"Feature","geometry":{"type":"Point","coordinates":[-70.11,18.42]},"properties":{"NAME":"San Cristóbal","POP_MAX":154040}},
{"type":"Feature","geometry":{"type":"Point","coordinates":[-68.71,18.62]},"properties":{"NAME":"Higuey","POP_MAX":123787}},
{"type":"Feature","geometry":{"type":"Point","coordinates":[-10.15,8.55]},"properties":{"NAME":"Gueckedou","POP_MAX":221715}},
{"type":"Feature","geometry":{"type":"Point","coordinates":[-5.36,5.84]},"properties":{"NAME":"Divo","POP_MAX":127867}},
{"type":"Feature","geometry":{"type":"Point","coordinates":[64.36,31.58]},"properties":{"NAME":"Lashkar Gah","POP_MAX":201546}},
{"type":"Feature","geometry":{"type":"Point","coordinates":[5.77,36.82]},"properties":{"NAME":"Jijel","POP_MAX":148000}},
{"type":"Feature","geometry":{"type":"Point","coordinates":[4.05,36.71]},"properties":{"NAME":"Tizi-Ouzou","POP_MAX":144000}},
{"type":"Feature","geometry":{"type":"Point","coordinates":[4.76,36.08]},"properties":{"NAME":"Bordj Bou Arréridj","POP_MAX":140000}},
{"type":"Feature","geometry":{"type":"Point","coordinates":[4.55,35.7]},"properties":{"NAME":"M'sila","POP_MAX":150000}},
{"type":"Feature","geometry":{"type":"Point","coordinates":[7.43,36.47]},"properties":{"NAME":"Guelma","POP_MAX":123590}},
{"type":"Feature","geometry":{"type":"Point","coordinates":[7.15,35.85]},"properties":{"NAME":"Oum el Bouaghi","POP_MAX":100821}},
{"type":"Feature","geometry":{"type":"Point","coordinates":[97.04,20.78]},"properties":{"NAME":"Taunggyi","POP_MAX":160115}},
{"type":"Feature","geometry":{"type":"Point","coordinates":[47.33,10.58]},"properties":{"NAME":"Ceerigaabo","POP_MAX":180000}},
{"type":"Feature","geometry":{"type":"Point","coordinates":[-86.09,11.97]},"properties":{"NAME":"Masaya","POP_MAX":130113}},
{"type":"Feature","geometry":{"type":"Point","coordinates":[40.13,30]},"properties":{"NAME":"Sakakah","POP_MAX":128332}},
{"type":"Feature","geometry":{"type":"Point","coordinates":[11.97,11.75]},"properties":{"NAME":"Damaturu","POP_MAX":255895}},
{"type":"Feature","geometry":{"type":"Point","coordinates":[8.27,49.98]},"properties":{"NAME":"Mainz","POP_MAX":184997}},
{"type":"Feature","geometry":{"type":"Point","coordinates":[43,36.87]},"properties":{"NAME":"Duhok","POP_MAX":986000}},
{"type":"Feature","geometry":{"type":"Point","coordinates":[43.88,34.19]},"properties":{"NAME":"Samarra","POP_MAX":158508}},
{"type":"Feature","geometry":{"type":"Point","coordinates":[38.48,7.06]},"properties":{"NAME":"Awasa","POP_MAX":133097}},
{"type":"Feature","geometry":{"type":"Point","coordinates":[50.85,32.32]},"properties":{"NAME":"Shahrekord","POP_MAX":129153}},
{"type":"Feature","geometry":{"type":"Point","coordinates":[51.14,43.69]},"properties":{"NAME":"Mangyshlak","POP_MAX":147443}},
{"type":"Feature","geometry":{"type":"Point","coordinates":[121.3,24.96]},"properties":{"NAME":"Bade","POP_MAX":172065}},
{"type":"Feature","geometry":{"type":"Point","coordinates":[121.22,24.94]},"properties":{"NAME":"Pingzhen","POP_MAX":201632}},
{"type":"Feature","geometry":{"type":"Point","coordinates":[121.31,24.99]},"properties":{"NAME":"Taoyuan","POP_MAX":500000}},
{"type":"Feature","geometry":{"type":"Point","coordinates":[121.15,24.92]},"properties":{"NAME":"Yangmei","POP_MAX":175000}},
{"type":"Feature","geometry":{"type":"Point","coordinates":[121.75,24.75]},"properties":{"NAME":"Yilan","POP_MAX":150000}},
{"type":"Feature","geometry":{"type":"Point","coordinates":[121.01,24.83]},"properties":{"NAME":"Zhubei","POP_MAX":200000}},
{"type":"Feature","geometry":{"type":"Point","coordinates":[-54.95,-34.97]},"properties":{"NAME":"Punta del Este","POP_MAX":159000}},
{"type":"Feature","geometry":{"type":"Point","coordinates":[-119.14,46.21]},"properties":{"NAME":"Kennewick","POP_MAX":102504}},
{"type":"Feature","geometry":{"type":"Point","coordinates":[-112.17,33.54]},"properties":{"NAME":"Glendale","POP_MAX":500000}},
{"type":"Feature","geometry":{"type":"Point","coordinates":[-111.82,33.41]},"properties":{"NAME":"Mesa","POP_MAX":1085394}},
{"type":"Feature","geometry":{"type":"Point","coordinates":[-122.27,37.87]},"properties":{"NAME":"Berkeley","POP_MAX":496356}},
{"type":"Feature","geometry":{"type":"Point","coordinates":[-117.1,32.67]},"properties":{"NAME":"National City","POP_MAX":150000}},
{"type":"Feature","geometry":{"type":"Point","coordinates":[-117.4,33.94]},"properties":{"NAME":"Riverside","POP_MAX":297554}},
{"type":"Feature","geometry":{"type":"Point","coordinates":[-122.3,37.54]},"properties":{"NAME":"San Mateo","POP_MAX":626406}},
{"type":"Feature","geometry":{"type":"Point","coordinates":[-122.26,38.11]},"properties":{"NAME":"Vallejo","POP_MAX":146289}},
{"type":"Feature","geometry":{"type":"Point","coordinates":[-104.81,39.7]},"properties":{"NAME":"Aurora","POP_MAX":587540}},
{"type":"Feature","geometry":{"type":"Point","coordinates":[-104.74,40.42]},"properties":{"NAME":"Greeley","POP_MAX":125410}},
{"type":"Feature","geometry":{"type":"Point","coordinates":[-94.63,39.11]},"properties":{"NAME":"Kansas City","POP_MAX":501577}},
{"type":"Feature","geometry":{"type":"Point","coordinates":[-94.42,39.09]},"properties":{"NAME":"Independence","POP_MAX":148102}},
{"type":"Feature","geometry":{"type":"Point","coordinates":[-90.15,29.98]},"properties":{"NAME":"Metairie","POP_MAX":394206}},
{"type":"Feature","geometry":{"type":"Point","coordinates":[-96.37,30.67]},"properties":{"NAME":"Bryan","POP_MAX":146692}},
{"type":"Feature","geometry":{"type":"Point","coordinates":[-98.23,26.2]},"properties":{"NAME":"McAllen","POP_MAX":364004}},
{"type":"Feature","geometry":{"type":"Point","coordinates":[-97.69,26.2]},"properties":{"NAME":"Harlingen","POP_MAX":110339}},
{"type":"Feature","geometry":{"type":"Point","coordinates":[-95.15,29.66]},"properties":{"NAME":"Pasadena","POP_MAX":628492}},
{"type":"Feature","geometry":{"type":"Point","coordinates":[-97.02,32.68]},"properties":{"NAME":"Arlington","POP_MAX":724777}},
{"type":"Feature","geometry":{"type":"Point","coordinates":[-70.25,8.6]},"properties":{"NAME":"Barinas","POP_MAX":284289}},
{"type":"Feature","geometry":{"type":"Point","coordinates":[-70.62,9.32]},"properties":{"NAME":"Valera","POP_MAX":191167}},
{"type":"Feature","geometry":{"type":"Point","coordinates":[-71.45,10.43]},"properties":{"NAME":"Cabimas","POP_MAX":441094}},
{"type":"Feature","geometry":{"type":"Point","coordinates":[-70.08,10.19]},"properties":{"NAME":"Carora","POP_MAX":149711}},
{"type":"Feature","geometry":{"type":"Point","coordinates":[-69.75,9.05]},"properties":{"NAME":"Guanare","POP_MAX":151642}},
{"type":"Feature","geometry":{"type":"Point","coordinates":[-73.54,41.05]},"properties":{"NAME":"Stamford","POP_MAX":746920}},
{"type":"Feature","geometry":{"type":"Point","coordinates":[-73.05,41.55]},"properties":{"NAME":"Waterbury","POP_MAX":174236}},
{"type":"Feature","geometry":{"type":"Point","coordinates":[-70.94,41.66]},"properties":{"NAME":"New Bedford","POP_MAX":136082}},
{"type":"Feature","geometry":{"type":"Point","coordinates":[-72.58,42.12]},"properties":{"NAME":"Springfield","POP_MAX":421780}},
{"type":"Feature","geometry":{"type":"Point","coordinates":[-70.88,42.52]},"properties":{"NAME":"Salem","POP_MAX":335509}},
{"type":"Feature","geometry":{"type":"Point","coordinates":[-81.73,28.02]},"properties":{"NAME":"Winter Haven","POP_MAX":108932}},
{"type":"Feature","geometry":{"type":"Point","coordinates":[-80.61,28.08]},"properties":{"NAME":"Melbourne","POP_MAX":265414}},
{"type":"Feature","geometry":{"type":"Point","coordinates":[-81.28,28.79]},"properties":{"NAME":"Sanford","POP_MAX":333460}},
{"type":"Feature","geometry":{"type":"Point","coordinates":[-80.13,25.81]},"properties":{"NAME":"Miami Beach","POP_MAX":407750}},
{"type":"Feature","geometry":{"type":"Point","coordinates":[-80.27,26.27]},"properties":{"NAME":"Coral Springs","POP_MAX":250000}},
{"type":"Feature","geometry":{"type":"Point","coordinates":[-82.55,28.48]},"properties":{"NAME":"Spring Hill","POP_MAX":114697}},
{"type":"Feature","geometry":{"type":"Point","coordinates":[-85.66,30.16]},"properties":{"NAME":"Panama City","POP_MAX":100072}},
{"type":"Feature","geometry":{"type":"Point","coordinates":[-90,34.97]},"properties":{"NAME":"Southaven","POP_MAX":121268}},
{"type":"Feature","geometry":{"type":"Point","coordinates":[-81.93,34.95]},"properties":{"NAME":"Spartanburg","POP_MAX":124126}},
{"type":"Feature","geometry":{"type":"Point","coordinates":[-88.11,41.53]},"properties":{"NAME":"Joliet","POP_MAX":578460}},
{"type":"Feature","geometry":{"type":"Point","coordinates":[-89.07,42.27]},"properties":{"NAME":"Rockford","POP_MAX":255978}},
{"type":"Feature","geometry":{"type":"Point","coordinates":[-87.7,42.05]},"properties":{"NAME":"Evanston","POP_MAX":350000}},
{"type":"Feature","geometry":{"type":"Point","coordinates":[-90.53,41.49]},"properties":{"NAME":"Rock Island","POP_MAX":165728}},
{"type":"Feature","geometry":{"type":"Point","coordinates":[-88.29,42.04]},"properties":{"NAME":"Elgin","POP_MAX":389514}},
{"type":"Feature","geometry":{"type":"Point","coordinates":[-86.88,40.42]},"properties":{"NAME":"Lafayette","POP_MAX":133977}},
{"type":"Feature","geometry":{"type":"Point","coordinates":[-86.25,41.68]},"properties":{"NAME":"South Bend","POP_MAX":239822}},
{"type":"Feature","geometry":{"type":"Point","coordinates":[-85.82,38.31]},"properties":{"NAME":"New Albany","POP_MAX":120625}},
{"type":"Feature","geometry":{"type":"Point","coordinates":[-85.97,41.68]},"properties":{"NAME":"Elkhart","POP_MAX":149190}},
{"type":"Feature","geometry":{"type":"Point","coordinates":[-78.92,36]},"properties":{"NAME":"Durham","POP_MAX":309495}},
{"type":"Feature","geometry":{"type":"Point","coordinates":[-87.04,35.61]},"properties":{"NAME":"Columbia","POP_MAX":116091}},
{"type":"Feature","geometry":{"type":"Point","coordinates":[-89.84,35.22]},"properties":{"NAME":"Barlett","POP_MAX":286423}},
{"type":"Feature","geometry":{"type":"Point","coordinates":[-77.4,37.23]},"properties":{"NAME":"Petersburg","POP_MAX":118577}},
{"type":"Feature","geometry":{"type":"Point","coordinates":[-76.35,37.03]},"properties":{"NAME":"Hampton","POP_MAX":366766}},
{"type":"Feature","geometry":{"type":"Point","coordinates":[-88.23,43.01]},"properties":{"NAME":"Waukesha","POP_MAX":249912}},
{"type":"Feature","geometry":{"type":"Point","coordinates":[-88.4,44.27]},"properties":{"NAME":"Appleton","POP_MAX":203665}},
{"type":"Feature","geometry":{"type":"Point","coordinates":[-74.17,40.92]},"properties":{"NAME":"Paterson","POP_MAX":151205}},
{"type":"Feature","geometry":{"type":"Point","coordinates":[-73.92,41.7]},"properties":{"NAME":"Poughkeepsie","POP_MAX":170996}},
{"type":"Feature","geometry":{"type":"Point","coordinates":[-80.32,40.75]},"properties":{"NAME":"Beaver Falls","POP_MAX":120125}},
{"type":"Feature","geometry":{"type":"Point","coordinates":[-76.31,40.04]},"properties":{"NAME":"Lancaster","POP_MAX":209489}},
{"type":"Feature","geometry":{"type":"Point","coordinates":[-75.5,40.6]},"properties":{"NAME":"Allentown","POP_MAX":496442}},
{"type":"Feature","geometry":{"type":"Point","coordinates":[-64.68,10.17]},"properties":{"NAME":"Puerto la Cruz","POP_MAX":546616}},
{"type":"Feature","geometry":{"type":"Point","coordinates":[-64.46,9.44]},"properties":{"NAME":"Anaco","POP_MAX":117596}},
{"type":"Feature","geometry":{"type":"Point","coordinates":[-67.02,10.42]},"properties":{"NAME":"Los Teques","POP_MAX":303470}},
{"type":"Feature","geometry":{"type":"Point","coordinates":[-66.78,10.12]},"properties":{"NAME":"Ocumare del Tuy","POP_MAX":166072}},
{"type":"Feature","geometry":{"type":"Point","coordinates":[-63.23,10.67]},"properties":{"NAME":"Carúpano","POP_MAX":126293}},
{"type":"Feature","geometry":{"type":"Point","coordinates":[-61.46,10.28]},"properties":{"NAME":"San Fernando","POP_MAX":166039}},
{"type":"Feature","geometry":{"type":"Point","coordinates":[-4.88,36.52]},"properties":{"NAME":"Marbella","POP_MAX":186131}},
{"type":"Feature","geometry":{"type":"Point","coordinates":[-5.45,36.13]},"properties":{"NAME":"Algeciras","POP_MAX":111027}},
{"type":"Feature","geometry":{"type":"Point","coordinates":[-5.57,42.58]},"properties":{"NAME":"León","POP_MAX":136227}},
{"type":"Feature","geometry":{"type":"Point","coordinates":[2.45,41.54]},"properties":{"NAME":"Mataró","POP_MAX":183293}},
{"type":"Feature","geometry":{"type":"Point","coordinates":[35.78,35.54]},"properties":{"NAME":"Latakia","POP_MAX":539147}},
{"type":"Feature","geometry":{"type":"Point","coordinates":[37.96,36.53]},"properties":{"NAME":"Manbij","POP_MAX":120169}},
{"type":"Feature","geometry":{"type":"Point","coordinates":[36.63,35.93]},"properties":{"NAME":"Idlib","POP_MAX":128840}},
{"type":"Feature","geometry":{"type":"Point","coordinates":[41.23,37.03]},"properties":{"NAME":"Al Qamishli","POP_MAX":104107}},
{"type":"Feature","geometry":{"type":"Point","coordinates":[40.75,36.48]},"properties":{"NAME":"Al Hasakah","POP_MAX":128100}},
{"type":"Feature","geometry":{"type":"Point","coordinates":[36.4,33.58]},"properties":{"NAME":"Douma","POP_MAX":496145}},
{"type":"Feature","geometry":{"type":"Point","coordinates":[44.39,14.56]},"properties":{"NAME":"Dhamar","POP_MAX":191259}},
{"type":"Feature","geometry":{"type":"Point","coordinates":[44.17,13.98]},"properties":{"NAME":"Ibb","POP_MAX":234837}},
{"type":"Feature","geometry":{"type":"Point","coordinates":[16.56,59.61]},"properties":{"NAME":"Västerås","POP_MAX":107194}},
{"type":"Feature","geometry":{"type":"Point","coordinates":[31.98,46.97]},"properties":{"NAME":"Mykolayiv","POP_MAX":510840}},
{"type":"Feature","geometry":{"type":"Point","coordinates":[31.3,51.5]},"properties":{"NAME":"Chernihiv","POP_MAX":307684}},
{"type":"Feature","geometry":{"type":"Point","coordinates":[27,49.42]},"properties":{"NAME":"Khmelnytskyy","POP_MAX":398346}},
{"type":"Feature","geometry":{"type":"Point","coordinates":[26.58,48.68]},"properties":{"NAME":"Kamyanets-Podilskyy","POP_MAX":114658}},
{"type":"Feature","geometry":{"type":"Point","coordinates":[23.5,49.34]},"properties":{"NAME":"Drohobych","POP_MAX":124269}},
{"type":"Feature","geometry":{"type":"Point","coordinates":[22.25,48.63]},"properties":{"NAME":"Uzhgorod","POP_MAX":150832}},
{"type":"Feature","geometry":{"type":"Point","coordinates":[30.13,49.77]},"properties":{"NAME":"Bila Tserkva","POP_MAX":199163}},
{"type":"Feature","geometry":{"type":"Point","coordinates":[33.21,51.24]},"properties":{"NAME":"Konotop","POP_MAX":103547}},
{"type":"Feature","geometry":{"type":"Point","coordinates":[33.34,47.93]},"properties":{"NAME":"Kryvyy Rih","POP_MAX":652380}},
{"type":"Feature","geometry":{"type":"Point","coordinates":[37.97,48.03]},"properties":{"NAME":"Makiyivka","POP_MAX":376610}},
{"type":"Feature","geometry":{"type":"Point","coordinates":[38.05,48.3]},"properties":{"NAME":"Horlivka","POP_MAX":396885}},
{"type":"Feature","geometry":{"type":"Point","coordinates":[37.53,48.72]},"properties":{"NAME":"Kramatorsk","POP_MAX":184105}},
{"type":"Feature","geometry":{"type":"Point","coordinates":[36.79,46.76]},"properties":{"NAME":"Berdyansk","POP_MAX":118284}},
{"type":"Feature","geometry":{"type":"Point","coordinates":[55.41,25.37]},"properties":{"NAME":"Sharjah","POP_MAX":1103027}},
{"type":"Feature","geometry":{"type":"Point","coordinates":[66.26,39.9]},"properties":{"NAME":"Kattaqorgon","POP_MAX":247113}},
{"type":"Feature","geometry":{"type":"Point","coordinates":[67.89,38.28]},"properties":{"NAME":"Denow","POP_MAX":217274}},
{"type":"Feature","geometry":{"type":"Point","coordinates":[68.77,37.84]},"properties":{"NAME":"Qurghonteppa","POP_MAX":311574}},
{"type":"Feature","geometry":{"type":"Point","coordinates":[70.43,40.29]},"properties":{"NAME":"Konibodom","POP_MAX":259876}},
{"type":"Feature","geometry":{"type":"Point","coordinates":[69.68,41.55]},"properties":{"NAME":"Iskandar","POP_MAX":195633}},
{"type":"Feature","geometry":{"type":"Point","coordinates":[69.56,41.45]},"properties":{"NAME":"Chirchiq","POP_MAX":167842}},
{"type":"Feature","geometry":{"type":"Point","coordinates":[-5.67,43.53]},"properties":{"NAME":"Gijón","POP_MAX":335972}},
{"type":"Feature","geometry":{"type":"Point","coordinates":[-2.67,42.85]},"properties":{"NAME":"Vitoria","POP_MAX":224578}},
{"type":"Feature","geometry":{"type":"Point","coordinates":[-1.38,54.9]},"properties":{"NAME":"Sunderland","POP_MAX":452934}},
{"type":"Feature","geometry":{"type":"Point","coordinates":[-1.4,50.9]},"properties":{"NAME":"Southampton","POP_MAX":384417}},
{"type":"Feature","geometry":{"type":"Point","coordinates":[-2.58,51.45]},"properties":{"NAME":"Bristol","POP_MAX":553528}},
{"type":"Feature","geometry":{"type":"Point","coordinates":[-1.9,50.73]},"properties":{"NAME":"Bournemouth","POP_MAX":426945}},
{"type":"Feature","geometry":{"type":"Point","coordinates":[-3.95,51.63]},"properties":{"NAME":"Swansea","POP_MAX":294339}},
{"type":"Feature","geometry":{"type":"Point","coordinates":[27.85,37.85]},"properties":{"NAME":"Aydın","POP_MAX":198857}},
{"type":"Feature","geometry":{"type":"Point","coordinates":[30.53,37.77]},"properties":{"NAME":"Isparta","POP_MAX":172334}},
{"type":"Feature","geometry":{"type":"Point","coordinates":[29.93,39.42]},"properties":{"NAME":"Kütahya","POP_MAX":185008}},
{"type":"Feature","geometry":{"type":"Point","coordinates":[39.23,38.68]},"properties":{"NAME":"Elâzığ","POP_MAX":271492}},
{"type":"Feature","geometry":{"type":"Point","coordinates":[36.95,37.61]},"properties":{"NAME":"Kahramanmaraş","POP_MAX":376045}},
{"type":"Feature","geometry":{"type":"Point","coordinates":[34.62,36.8]},"properties":{"NAME":"Icel","POP_MAX":616990}},
{"type":"Feature","geometry":{"type":"Point","coordinates":[34.95,40.52]},"properties":{"NAME":"Corum","POP_MAX":183418}},
{"type":"Feature","geometry":{"type":"Point","coordinates":[40.52,41.02]},"properties":{"NAME":"Rize","POP_MAX":279450}},
{"type":"Feature","geometry":{"type":"Point","coordinates":[127.5,36.64]},"properties":{"NAME":"Cheongju","POP_MAX":775096}},
{"type":"Feature","geometry":{"type":"Point","coordinates":[127.94,37.36]},"properties":{"NAME":"Wonju","POP_MAX":243387}},
{"type":"Feature","geometry":{"type":"Point","coordinates":[127.73,37.87]},"properties":{"NAME":"Chuncheon","POP_MAX":226509}},
{"type":"Feature","geometry":{"type":"Point","coordinates":[126.86,37.35]},"properties":{"NAME":"Ansan","POP_MAX":739493}},
{"type":"Feature","geometry":{"type":"Point","coordinates":[126.95,35.94]},"properties":{"NAME":"Iksan","POP_MAX":283501}},
{"type":"Feature","geometry":{"type":"Point","coordinates":[129.21,35.84]},"properties":{"NAME":"Gyeongju","POP_MAX":155237}},
{"type":"Feature","geometry":{"type":"Point","coordinates":[128.58,35.22]},"properties":{"NAME":"Changwon","POP_MAX":1081499}},
{"type":"Feature","geometry":{"type":"Point","coordinates":[0.72,51.55]},"properties":{"NAME":"Southend-on-Sea","POP_MAX":618386}},
{"type":"Feature","geometry":{"type":"Point","coordinates":[-0.98,51.47]},"properties":{"NAME":"Reading","POP_MAX":369804}},
{"type":"Feature","geometry":{"type":"Point","coordinates":[-1.13,52.63]},"properties":{"NAME":"Leicester","POP_MAX":457983}},
{"type":"Feature","geometry":{"type":"Point","coordinates":[-1.75,53.79]},"properties":{"NAME":"Bradford","POP_MAX":501700}},
{"type":"Feature","geometry":{"type":"Point","coordinates":[-1.5,53.37]},"properties":{"NAME":"Sheffield","POP_MAX":1292900}},
{"type":"Feature","geometry":{"type":"Point","coordinates":[32.6,41.2]},"properties":{"NAME":"Karabük","POP_MAX":128564}},
{"type":"Feature","geometry":{"type":"Point","coordinates":[41.22,37.07]},"properties":{"NAME":"Nusaybin","POP_MAX":152668}},
{"type":"Feature","geometry":{"type":"Point","coordinates":[16.63,47.23]},"properties":{"NAME":"Szombathely","POP_MAX":109518}},
{"type":"Feature","geometry":{"type":"Point","coordinates":[19.7,46.9]},"properties":{"NAME":"Kecskemét","POP_MAX":113895}},
{"type":"Feature","geometry":{"type":"Point","coordinates":[18.41,47.19]},"properties":{"NAME":"Székesfehérvár","POP_MAX":144319}},
{"type":"Feature","geometry":{"type":"Point","coordinates":[21.72,47.97]},"properties":{"NAME":"Nyíregyháza","POP_MAX":176880}},
{"type":"Feature","geometry":{"type":"Point","coordinates":[22.67,44.65]},"properties":{"NAME":"Drobeta-Turnu Severin","POP_MAX":106578}},
{"type":"Feature","geometry":{"type":"Point","coordinates":[21.32,46.17]},"properties":{"NAME":"Arad","POP_MAX":169065}},
{"type":"Feature","geometry":{"type":"Point","coordinates":[21.92,47.05]},"properties":{"NAME":"Oradea","POP_MAX":213830}},
{"type":"Feature","geometry":{"type":"Point","coordinates":[24.14,45.8]},"properties":{"NAME":"Sibiu","POP_MAX":155565}},
{"type":"Feature","geometry":{"type":"Point","coordinates":[26.26,47.64]},"properties":{"NAME":"Suceava","POP_MAX":105796}},
{"type":"Feature","geometry":{"type":"Point","coordinates":[26.81,45.16]},"properties":{"NAME":"Buzău","POP_MAX":130954}},
{"type":"Feature","geometry":{"type":"Point","coordinates":[28.05,45.46]},"properties":{"NAME":"Galați","POP_MAX":311156}},
{"type":"Feature","geometry":{"type":"Point","coordinates":[27.19,45.7]},"properties":{"NAME":"Focșani","POP_MAX":105112}},
{"type":"Feature","geometry":{"type":"Point","coordinates":[-57.52,-25.34]},"properties":{"NAME":"San Lorenzo","POP_MAX":500000}},
{"type":"Feature","geometry":{"type":"Point","coordinates":[-55.87,-27.35]},"properties":{"NAME":"Encarnación","POP_MAX":357119}},
{"type":"Feature","geometry":{"type":"Point","coordinates":[-86.36,13.09]},"properties":{"NAME":"Estelí","POP_MAX":107839}},
{"type":"Feature","geometry":{"type":"Point","coordinates":[-8.42,41.55]},"properties":{"NAME":"Braga","POP_MAX":826833}},
{"type":"Feature","geometry":{"type":"Point","coordinates":[38.05,24.09]},"properties":{"NAME":"Yanbu al Bahr","POP_MAX":267590}},
{"type":"Feature","geometry":{"type":"Point","coordinates":[40.38,21.26]},"properties":{"NAME":"At Taif","POP_MAX":657282}},
{"type":"Feature","geometry":{"type":"Point","coordinates":[5.5,51.43]},"properties":{"NAME":"Eindhoven","POP_MAX":398053}},
{"type":"Feature","geometry":{"type":"Point","coordinates":[24.37,55.74]},"properties":{"NAME":"Panevežys","POP_MAX":127405}},
{"type":"Feature","geometry":{"type":"Point","coordinates":[23.33,55.94]},"properties":{"NAME":"Šiauliai","POP_MAX":133528}},
{"type":"Feature","geometry":{"type":"Point","coordinates":[44.13,17.51]},"properties":{"NAME":"Najran","POP_MAX":369609}},
{"type":"Feature","geometry":{"type":"Point","coordinates":[46.76,23.49]},"properties":{"NAME":"Al Hillah","POP_MAX":594605}},
{"type":"Feature","geometry":{"type":"Point","coordinates":[49.57,25.43]},"properties":{"NAME":"Al Mubarraz","POP_MAX":298562}},
{"type":"Feature","geometry":{"type":"Point","coordinates":[50.01,26.52]},"properties":{"NAME":"Al-Qatif","POP_MAX":368892}},
{"type":"Feature","geometry":{"type":"Point","coordinates":[74.56,32.52]},"properties":{"NAME":"Sialkote","POP_MAX":477396}},
{"type":"Feature","geometry":{"type":"Point","coordinates":[73.99,31.72]},"properties":{"NAME":"Sheikhu Pura","POP_MAX":361303}},
{"type":"Feature","geometry":{"type":"Point","coordinates":[74.08,32.58]},"properties":{"NAME":"Gujrat","POP_MAX":301506}},
{"type":"Feature","geometry":{"type":"Point","coordinates":[73.11,30.67]},"properties":{"NAME":"Sahiwal","POP_MAX":235695}},
{"type":"Feature","geometry":{"type":"Point","coordinates":[72.98,31.72]},"properties":{"NAME":"Chiniot","POP_MAX":201781}},
{"type":"Feature","geometry":{"type":"Point","coordinates":[70.3,28.42]},"properties":{"NAME":"Rahim Yar Khan","POP_MAX":353203}},
{"type":"Feature","geometry":{"type":"Point","coordinates":[75.28,42.83]},"properties":{"NAME":"Tokmak","POP_MAX":112860}},
{"type":"Feature","geometry":{"type":"Point","coordinates":[71.43,33.6]},"properties":{"NAME":"Kohat","POP_MAX":343027}},
{"type":"Feature","geometry":{"type":"Point","coordinates":[73.2,34.15]},"properties":{"NAME":"Abbottabad","POP_MAX":1183647}},
{"type":"Feature","geometry":{"type":"Point","coordinates":[72.04,34.2]},"properties":{"NAME":"Mardan","POP_MAX":300424}},
{"type":"Feature","geometry":{"type":"Point","coordinates":[85.33,27.67]},"properties":{"NAME":"Lalitpur","POP_MAX":337785}},
{"type":"Feature","geometry":{"type":"Point","coordinates":[85.03,27.42]},"properties":{"NAME":"Hetauda","POP_MAX":232334}},
{"type":"Feature","geometry":{"type":"Point","coordinates":[20.75,42.23]},"properties":{"NAME":"Prizren","POP_MAX":171464}},
{"type":"Feature","geometry":{"type":"Point","coordinates":[47.66,29.34]},"properties":{"NAME":"Al Jahra","POP_MAX":194193}},
{"type":"Feature","geometry":{"type":"Point","coordinates":[40.12,44.61]},"properties":{"NAME":"Maykop","POP_MAX":158451}},
{"type":"Feature","geometry":{"type":"Point","coordinates":[43.09,44.08]},"properties":{"NAME":"Pyatigorsk","POP_MAX":142865}},
{"type":"Feature","geometry":{"type":"Point","coordinates":[42.72,43.91]},"properties":{"NAME":"Kislovodsk","POP_MAX":132771}},
{"type":"Feature","geometry":{"type":"Point","coordinates":[41.95,44.62]},"properties":{"NAME":"Nevinnomyssk","POP_MAX":134380}},
{"type":"Feature","geometry":{"type":"Point","coordinates":[30.65,59.73]},"properties":{"NAME":"Kolpino","POP_MAX":225801}},
{"type":"Feature","geometry":{"type":"Point","coordinates":[43.8,55.4]},"properties":{"NAME":"Arzamas","POP_MAX":142597}},
{"type":"Feature","geometry":{"type":"Point","coordinates":[38.5,52.58]},"properties":{"NAME":"Yelets","POP_MAX":115919}},
{"type":"Feature","geometry":{"type":"Point","coordinates":[38.98,55.82]},"properties":{"NAME":"Orekhovo-Zuevo","POP_MAX":140247}},
{"type":"Feature","geometry":{"type":"Point","coordinates":[38.17,56.33]},"properties":{"NAME":"Sergiyev Posad","POP_MAX":109252}},
{"type":"Feature","geometry":{"type":"Point","coordinates":[38.78,55.08]},"properties":{"NAME":"Kolomna","POP_MAX":147690}},
{"type":"Feature","geometry":{"type":"Point","coordinates":[39.74,47.14]},"properties":{"NAME":"Bataysk","POP_MAX":109962}},
{"type":"Feature","geometry":{"type":"Point","coordinates":[38.92,47.23]},"properties":{"NAME":"Taganrog","POP_MAX":279056}},
{"type":"Feature","geometry":{"type":"Point","coordinates":[40.08,47.42]},"properties":{"NAME":"Novocherkassk","POP_MAX":166974}},
{"type":"Feature","geometry":{"type":"Point","coordinates":[38.29,54.01]},"properties":{"NAME":"Novomoskovsk","POP_MAX":130982}},
{"type":"Feature","geometry":{"type":"Point","coordinates":[53.46,54.46]},"properties":{"NAME":"Oktyabrskiy","POP_MAX":108200}},
{"type":"Feature","geometry":{"type":"Point","coordinates":[58.33,51.2]},"properties":{"NAME":"Novotroitsk","POP_MAX":106186}},
{"type":"Feature","geometry":{"type":"Point","coordinates":[49.72,52.97]},"properties":{"NAME":"Chapayevsk","POP_MAX":107164}},
{"type":"Feature","geometry":{"type":"Point","coordinates":[48.48,53.17]},"properties":{"NAME":"Syzran","POP_MAX":189338}},
{"type":"Feature","geometry":{"type":"Point","coordinates":[49.92,53.12]},"properties":{"NAME":"Novokuybishevsk","POP_MAX":152334}},
{"type":"Feature","geometry":{"type":"Point","coordinates":[52.39,55.73]},"properties":{"NAME":"Naberezhnyye Chelny","POP_MAX":461086}},
{"type":"Feature","geometry":{"type":"Point","coordinates":[72.61,61.09]},"properties":{"NAME":"Nefteyugansk","POP_MAX":112632}},
{"type":"Feature","geometry":{"type":"Point","coordinates":[86.17,54.66]},"properties":{"NAME":"Leninsk Kuznetsky","POP_MAX":109023}},
{"type":"Feature","geometry":{"type":"Point","coordinates":[86.64,54]},"properties":{"NAME":"Kiselevsk","POP_MAX":104000}},
{"type":"Feature","geometry":{"type":"Point","coordinates":[-105.67,26.93]},"properties":{"NAME":"Hidalgo del Parral","POP_MAX":103378}},
{"type":"Feature","geometry":{"type":"Point","coordinates":[-103.5,25.57]},"properties":{"NAME":"Gómez Palacio","POP_MAX":399328}},
{"type":"Feature","geometry":{"type":"Point","coordinates":[-99.02,21.98]},"properties":{"NAME":"Ciudad Valles","POP_MAX":114964}},
{"type":"Feature","geometry":{"type":"Point","coordinates":[-98.3,26.08]},"properties":{"NAME":"Reynosa","POP_MAX":498654}},
{"type":"Feature","geometry":{"type":"Point","coordinates":[-97.84,22.32]},"properties":{"NAME":"Ciudad Madero","POP_MAX":192736}},
{"type":"Feature","geometry":{"type":"Point","coordinates":[-98.23,19.32]},"properties":{"NAME":"Tlaxcala","POP_MAX":503878}},
{"type":"Feature","geometry":{"type":"Point","coordinates":[-101.35,20.68]},"properties":{"NAME":"Irapuato","POP_MAX":339554}},
{"type":"Feature","geometry":{"type":"Point","coordinates":[-100.8,20.53]},"properties":{"NAME":"Celaya","POP_MAX":383697}},
{"type":"Feature","geometry":{"type":"Point","coordinates":[-99.5,17.55]},"properties":{"NAME":"Chilpancingo","POP_MAX":182387}},
{"type":"Feature","geometry":{"type":"Point","coordinates":[-99.54,18.37]},"properties":{"NAME":"Iguala","POP_MAX":112106}},
{"type":"Feature","geometry":{"type":"Point","coordinates":[-99.03,19.41]},"properties":{"NAME":"Nezahualcoyotl","POP_MAX":1109363}},
{"type":"Feature","geometry":{"type":"Point","coordinates":[-100,20.38]},"properties":{"NAME":"San Juan del Río","POP_MAX":147559}},
{"type":"Feature","geometry":{"type":"Point","coordinates":[-97.13,18.85]},"properties":{"NAME":"Orizaba","POP_MAX":355333}},
{"type":"Feature","geometry":{"type":"Point","coordinates":[-96.92,19.53]},"properties":{"NAME":"Xalapa","POP_MAX":452186}},
{"type":"Feature","geometry":{"type":"Point","coordinates":[-92.63,16.75]},"properties":{"NAME":"San Cristobal de Las Casas","POP_MAX":186661}},
{"type":"Feature","geometry":{"type":"Point","coordinates":[-92.63,15.33]},"properties":{"NAME":"Escuintla","POP_MAX":107638}},
{"type":"Feature","geometry":{"type":"Point","coordinates":[4.18,7.63]},"properties":{"NAME":"Iwo","POP_MAX":250443}},
{"type":"Feature","geometry":{"type":"Point","coordinates":[20.97,42.01]},"properties":{"NAME":"Tetovo","POP_MAX":119132}},
{"type":"Feature","geometry":{"type":"Point","coordinates":[35.37,33.56]},"properties":{"NAME":"Saida","POP_MAX":173894}},
{"type":"Feature","geometry":{"type":"Point","coordinates":[20.49,53.77]},"properties":{"NAME":"Olsztyn","POP_MAX":186670}},
{"type":"Feature","geometry":{"type":"Point","coordinates":[19.4,54.15]},"properties":{"NAME":"Elbląg","POP_MAX":127558}},
{"type":"Feature","geometry":{"type":"Point","coordinates":[18.91,50.35]},"properties":{"NAME":"Bytom","POP_MAX":662247}},
{"type":"Feature","geometry":{"type":"Point","coordinates":[17.93,50.68]},"properties":{"NAME":"Opole","POP_MAX":131412}},
{"type":"Feature","geometry":{"type":"Point","coordinates":[56.75,59.67]},"properties":{"NAME":"Solikamsk","POP_MAX":100812}},
{"type":"Feature","geometry":{"type":"Point","coordinates":[126.56,37.96]},"properties":{"NAME":"Kaesong","POP_MAX":338155}},
{"type":"Feature","geometry":{"type":"Point","coordinates":[126.3,41.15]},"properties":{"NAME":"Manpo","POP_MAX":186827}},
{"type":"Feature","geometry":{"type":"Point","coordinates":[125.94,39.42]},"properties":{"NAME":"Sunchon","POP_MAX":400629}},
{"type":"Feature","geometry":{"type":"Point","coordinates":[10.92,44.65]},"properties":{"NAME":"Modena","POP_MAX":175502}},
{"type":"Feature","geometry":{"type":"Point","coordinates":[15.64,38.11]},"properties":{"NAME":"Reggio di Calabria","POP_MAX":180353}},
{"type":"Feature","geometry":{"type":"Point","coordinates":[14.34,41.06]},"properties":{"NAME":"Caserta","POP_MAX":250000}},
{"type":"Feature","geometry":{"type":"Point","coordinates":[16.27,41.32]},"properties":{"NAME":"Barletta","POP_MAX":107830}},
{"type":"Feature","geometry":{"type":"Point","coordinates":[35.85,32.55]},"properties":{"NAME":"Irbid","POP_MAX":650000}},
{"type":"Feature","geometry":{"type":"Point","coordinates":[35.73,32.04]},"properties":{"NAME":"As Salt","POP_MAX":140689}},
{"type":"Feature","geometry":{"type":"Point","coordinates":[36.1,32.07]},"properties":{"NAME":"Az Zarqa","POP_MAX":894691}},
{"type":"Feature","geometry":{"type":"Point","coordinates":[8.62,45.45]},"properties":{"NAME":"Novara","POP_MAX":100910}},
{"type":"Feature","geometry":{"type":"Point","coordinates":[9.08,45.81]},"properties":{"NAME":"Como","POP_MAX":250000}},
{"type":"Feature","geometry":{"type":"Point","coordinates":[13.24,46.07]},"properties":{"NAME":"Udine","POP_MAX":119009}},
{"type":"Feature","geometry":{"type":"Point","coordinates":[12.24,45.67]},"properties":{"NAME":"Treviso","POP_MAX":177309}},
{"type":"Feature","geometry":{"type":"Point","coordinates":[97.73,39.83]},"properties":{"NAME":"Yumen","POP_MAX":350000}},
{"type":"Feature","geometry":{"type":"Point","coordinates":[103.2,35.6]},"properties":{"NAME":"Linxia","POP_MAX":534555}},
{"type":"Feature","geometry":{"type":"Point","coordinates":[115.79,39.54]},"properties":{"NAME":"Zhuozhou","POP_MAX":628000}},
{"type":"Feature","geometry":{"type":"Point","coordinates":[117.58,26.23]},"properties":{"NAME":"Sanming","POP_MAX":209444}},
{"type":"Feature","geometry":{"type":"Point","coordinates":[114.4,23.08]},"properties":{"NAME":"Huizhou","POP_MAX":289201}},
{"type":"Feature","geometry":{"type":"Point","coordinates":[116.63,23.68]},"properties":{"NAME":"Chaozhou","POP_MAX":424787}},
{"type":"Feature","geometry":{"type":"Point","coordinates":[6.12,45.9]},"properties":{"NAME":"Annecy","POP_MAX":105749}},
{"type":"Feature","geometry":{"type":"Point","coordinates":[-78.46,-0.31]},"properties":{"NAME":"Sangolquí","POP_MAX":178582}},
{"type":"Feature","geometry":{"type":"Point","coordinates":[-72.94,5.72]},"properties":{"NAME":"Sogamoso","POP_MAX":126551}},
{"type":"Feature","geometry":{"type":"Point","coordinates":[-73.85,7.09]},"properties":{"NAME":"Barrancabermeja","POP_MAX":191403}},
{"type":"Feature","geometry":{"type":"Point","coordinates":[-83.93,9.87]},"properties":{"NAME":"Cartago","POP_MAX":196946}},
{"type":"Feature","geometry":{"type":"Point","coordinates":[-84.23,10.02]},"properties":{"NAME":"Alajuela","POP_MAX":387743}},
{"type":"Feature","geometry":{"type":"Point","coordinates":[-89.73,13.72]},"properties":{"NAME":"Sonsonate","POP_MAX":168947}},
{"type":"Feature","geometry":{"type":"Point","coordinates":[-88.18,13.48]},"properties":{"NAME":"San Miguel","POP_MAX":201563}},
{"type":"Feature","geometry":{"type":"Point","coordinates":[-78.76,21.84]},"properties":{"NAME":"Ciego de Ávila","POP_MAX":142027}},
{"type":"Feature","geometry":{"type":"Point","coordinates":[-76,20.22]},"properties":{"NAME":"Palma Soriano","POP_MAX":102826}},
{"type":"Feature","geometry":{"type":"Point","coordinates":[-77.23,17.97]},"properties":{"NAME":"May Pen","POP_MAX":135142}},
{"type":"Feature","geometry":{"type":"Point","coordinates":[-76.95,17.98]},"properties":{"NAME":"Spanish Town","POP_MAX":432704}},
{"type":"Feature","geometry":{"type":"Point","coordinates":[-74.81,4.31]},"properties":{"NAME":"Girardot","POP_MAX":130289}},
{"type":"Feature","geometry":{"type":"Point","coordinates":[-75.91,4.75]},"properties":{"NAME":"Cartago","POP_MAX":134827}},
{"type":"Feature","geometry":{"type":"Point","coordinates":[-74.77,10.92]},"properties":{"NAME":"Soledad","POP_MAX":698852}},
{"type":"Feature","geometry":{"type":"Point","coordinates":[-74.74,9.23]},"properties":{"NAME":"Magangué","POP_MAX":100313}},
{"type":"Feature","geometry":{"type":"Point","coordinates":[-73.25,10.48]},"properties":{"NAME":"Valledupar","POP_MAX":308237}},
{"type":"Feature","geometry":{"type":"Point","coordinates":[8.53,52.03]},"properties":{"NAME":"Bielefeld","POP_MAX":331906}},
{"type":"Feature","geometry":{"type":"Point","coordinates":[7.45,51.53]},"properties":{"NAME":"Dortmund","POP_MAX":588462}},
{"type":"Feature","geometry":{"type":"Point","coordinates":[6.75,51.43]},"properties":{"NAME":"Duisburg","POP_MAX":1276757}},
{"type":"Feature","geometry":{"type":"Point","coordinates":[7.17,51.25]},"properties":{"NAME":"Wuppertal","POP_MAX":776525}},
{"type":"Feature","geometry":{"type":"Point","coordinates":[7.02,51.45]},"properties":{"NAME":"Essen","POP_MAX":1742135}},
{"type":"Feature","geometry":{"type":"Point","coordinates":[8.4,49]},"properties":{"NAME":"Karlsruhe","POP_MAX":377487}},
{"type":"Feature","geometry":{"type":"Point","coordinates":[8.7,49.42]},"properties":{"NAME":"Heidelberg","POP_MAX":426590}},
{"type":"Feature","geometry":{"type":"Point","coordinates":[9.5,51.3]},"properties":{"NAME":"Kassel","POP_MAX":289924}},
{"type":"Feature","geometry":{"type":"Point","coordinates":[8.22,53.13]},"properties":{"NAME":"Oldenburg","POP_MAX":167458}},
{"type":"Feature","geometry":{"type":"Point","coordinates":[10.5,52.25]},"properties":{"NAME":"Braunschweig","POP_MAX":244715}},
{"type":"Feature","geometry":{"type":"Point","coordinates":[11.03,50.97]},"properties":{"NAME":"Erfurt","POP_MAX":203254}},
{"type":"Feature","geometry":{"type":"Point","coordinates":[14.45,45.33]},"properties":{"NAME":"Rijeka","POP_MAX":170992}},
{"type":"Feature","geometry":{"type":"Point","coordinates":[10.9,48.35]},"properties":{"NAME":"Augsburg","POP_MAX":358989}},
{"type":"Feature","geometry":{"type":"Point","coordinates":[11,49.47]},"properties":{"NAME":"Fürth","POP_MAX":237844}},
{"type":"Feature","geometry":{"type":"Point","coordinates":[15.08,50.8]},"properties":{"NAME":"Liberec","POP_MAX":102175}},
{"type":"Feature","geometry":{"type":"Point","coordinates":[12.92,50.83]},"properties":{"NAME":"Chemnitz","POP_MAX":302643}},
{"type":"Feature","geometry":{"type":"Point","coordinates":[17.26,49.59]},"properties":{"NAME":"Olomouc","POP_MAX":101268}},
{"type":"Feature","geometry":{"type":"Point","coordinates":[109.94,34.8]},"properties":{"NAME":"Dali","POP_MAX":109696}},
{"type":"Feature","geometry":{"type":"Point","coordinates":[113.57,37.87]},"properties":{"NAME":"Yangquan","POP_MAX":981448}},
{"type":"Feature","geometry":{"type":"Point","coordinates":[110.78,32.57]},"properties":{"NAME":"Shiyan","POP_MAX":770000}},
{"type":"Feature","geometry":{"type":"Point","coordinates":[112.23,30.32]},"properties":{"NAME":"Jingzhou","POP_MAX":520000}},
{"type":"Feature","geometry":{"type":"Point","coordinates":[104.4,31.13]},"properties":{"NAME":"Deyang","POP_MAX":152194}},
{"type":"Feature","geometry":{"type":"Point","coordinates":[98.47,25.03]},"properties":{"NAME":"Tengchong","POP_MAX":126058}},
{"type":"Feature","geometry":{"type":"Point","coordinates":[103.41,23.36]},"properties":{"NAME":"Mengzi","POP_MAX":303341}},
{"type":"Feature","geometry":{"type":"Point","coordinates":[101.55,25.04]},"properties":{"NAME":"Chuxiong","POP_MAX":254370}},
{"type":"Feature","geometry":{"type":"Point","coordinates":[115.7,37.72]},"properties":{"NAME":"Hengshui","POP_MAX":456356}},
{"type":"Feature","geometry":{"type":"Point","coordinates":[115.02,40.59]},"properties":{"NAME":"Xuanhua","POP_MAX":409745}},
{"type":"Feature","geometry":{"type":"Point","coordinates":[114.03,33.57]},"properties":{"NAME":"Luohe","POP_MAX":417356}},
{"type":"Feature","geometry":{"type":"Point","coordinates":[120.76,41.81]},"properties":{"NAME":"Beipiao","POP_MAX":228515}},
{"type":"Feature","geometry":{"type":"Point","coordinates":[122,39.63]},"properties":{"NAME":"Wafangdian","POP_MAX":355844}},
{"type":"Feature","geometry":{"type":"Point","coordinates":[119.38,35.99]},"properties":{"NAME":"Zhucheng","POP_MAX":1060000}},
{"type":"Feature","geometry":{"type":"Point","coordinates":[117.78,39.23]},"properties":{"NAME":"Hangu","POP_MAX":332793}},
{"type":"Feature","geometry":{"type":"Point","coordinates":[118.35,34.38]},"properties":{"NAME":"Xinyi","POP_MAX":962656}},
{"type":"Feature","geometry":{"type":"Point","coordinates":[119.43,32.4]},"properties":{"NAME":"Yangzhou","POP_MAX":539715}},
{"type":"Feature","geometry":{"type":"Point","coordinates":[121.12,28.85]},"properties":{"NAME":"Linhai","POP_MAX":251759}},
{"type":"Feature","geometry":{"type":"Point","coordinates":[121.25,28.65]},"properties":{"NAME":"Huangyan","POP_MAX":198713}},
{"type":"Feature","geometry":{"type":"Point","coordinates":[133.92,34.67]},"properties":{"NAME":"Okayama","POP_MAX":866092}},
{"type":"Feature","geometry":{"type":"Point","coordinates":[130.95,33.97]},"properties":{"NAME":"Shimonoseki","POP_MAX":245786}},
{"type":"Feature","geometry":{"type":"Point","coordinates":[126.43,41.9]},"properties":{"NAME":"Baishan","POP_MAX":330000}},
{"type":"Feature","geometry":{"type":"Point","coordinates":[129.51,42.88]},"properties":{"NAME":"Yanji","POP_MAX":488740}},
{"type":"Feature","geometry":{"type":"Point","coordinates":[134.04,34.34]},"properties":{"NAME":"Takamatsu","POP_MAX":334223}},
{"type":"Feature","geometry":{"type":"Point","coordinates":[134.55,34.07]},"properties":{"NAME":"Tokushima","POP_MAX":443760}},
{"type":"Feature","geometry":{"type":"Point","coordinates":[122.72,48]},"properties":{"NAME":"Zalantun","POP_MAX":138032}},
{"type":"Feature","geometry":{"type":"Point","coordinates":[125.32,46.4]},"properties":{"NAME":"Anda","POP_MAX":181533}},
{"type":"Feature","geometry":{"type":"Point","coordinates":[123.61,47.21]},"properties":{"NAME":"Hulan Ergi","POP_MAX":289999}},
{"type":"Feature","geometry":{"type":"Point","coordinates":[137.23,36.7]},"properties":{"NAME":"Toyama","POP_MAX":332812}},
{"type":"Feature","geometry":{"type":"Point","coordinates":[137,36.67]},"properties":{"NAME":"Takaoka","POP_MAX":170077}},
{"type":"Feature","geometry":{"type":"Point","coordinates":[135.87,35.01]},"properties":{"NAME":"Ōtsu","POP_MAX":536976}},
{"type":"Feature","geometry":{"type":"Point","coordinates":[139.07,36.39]},"properties":{"NAME":"Maebashi","POP_MAX":344871}},
{"type":"Feature","geometry":{"type":"Point","coordinates":[139.71,35.53]},"properties":{"NAME":"Kawasaki","POP_MAX":1437266}},
{"type":"Feature","geometry":{"type":"Point","coordinates":[139.49,35.92]},"properties":{"NAME":"Kawagoe","POP_MAX":337931}},
{"type":"Feature","geometry":{"type":"Point","coordinates":[139.87,36.55]},"properties":{"NAME":"Utsunomiya","POP_MAX":667752}},
{"type":"Feature","geometry":{"type":"Point","coordinates":[139.33,35.66]},"properties":{"NAME":"Hachiōji","POP_MAX":579399}},
{"type":"Feature","geometry":{"type":"Point","coordinates":[140.38,37.41]},"properties":{"NAME":"Kōriyama","POP_MAX":340560}},
{"type":"Feature","geometry":{"type":"Point","coordinates":[-89.44,16.2]},"properties":{"NAME":"San Luis","POP_MAX":132470}},
{"type":"Feature","geometry":{"type":"Point","coordinates":[-70.52,19.22]},"properties":{"NAME":"La Vega","POP_MAX":163197}},
{"type":"Feature","geometry":{"type":"Point","coordinates":[-70.25,19.3]},"properties":{"NAME":"San Francisco de Macorís","POP_MAX":152538}},
{"type":"Feature","geometry":{"type":"Point","coordinates":[77.17,31.1]},"properties":{"NAME":"Simla","POP_MAX":173503}},
{"type":"Feature","geometry":{"type":"Point","coordinates":[77.02,28.45]},"properties":{"NAME":"Gurgaon","POP_MAX":197340}},
{"type":"Feature","geometry":{"type":"Point","coordinates":[77.02,29]},"properties":{"NAME":"Sonipat","POP_MAX":250521}},
{"type":"Feature","geometry":{"type":"Point","coordinates":[76.58,28.9]},"properties":{"NAME":"Rohtak","POP_MAX":317245}},
{"type":"Feature","geometry":{"type":"Point","coordinates":[75.73,29.17]},"properties":{"NAME":"Hisar","POP_MAX":544829}},
{"type":"Feature","geometry":{"type":"Point","coordinates":[76.13,28.81]},"properties":{"NAME":"Bhiwani","POP_MAX":190855}},
{"type":"Feature","geometry":{"type":"Point","coordinates":[76.79,30.38]},"properties":{"NAME":"Ambala","POP_MAX":146787}},
{"type":"Feature","geometry":{"type":"Point","coordinates":[73.16,19.25]},"properties":{"NAME":"Kalyan","POP_MAX":1576614}},
{"type":"Feature","geometry":{"type":"Point","coordinates":[75.83,21.02]},"properties":{"NAME":"Bhusawal","POP_MAX":183001}},
{"type":"Feature","geometry":{"type":"Point","coordinates":[-0.53,47.48]},"properties":{"NAME":"Angers","POP_MAX":188380}},
{"type":"Feature","geometry":{"type":"Point","coordinates":[-1.56,43.47]},"properties":{"NAME":"Biarritz","POP_MAX":145348}},
{"type":"Feature","geometry":{"type":"Point","coordinates":[5.45,43.52]},"properties":{"NAME":"Aix-en-Provence","POP_MAX":146821}},
{"type":"Feature","geometry":{"type":"Point","coordinates":[2.9,42.7]},"properties":{"NAME":"Perpignan","POP_MAX":146620}},
{"type":"Feature","geometry":{"type":"Point","coordinates":[3.08,45.78]},"properties":{"NAME":"Clermont-Ferrand","POP_MAX":233050}},
{"type":"Feature","geometry":{"type":"Point","coordinates":[2.67,48.53]},"properties":{"NAME":"Melun","POP_MAX":249432}},
{"type":"Feature","geometry":{"type":"Point","coordinates":[6.03,47.23]},"properties":{"NAME":"Besançon","POP_MAX":128426}},
{"type":"Feature","geometry":{"type":"Point","coordinates":[-70.7,-33.6]},"properties":{"NAME":"San Bernardo","POP_MAX":246762}},
{"type":"Feature","geometry":{"type":"Point","coordinates":[-71.56,-33.02]},"properties":{"NAME":"Viña del Mar","POP_MAX":503534}},
{"type":"Feature","geometry":{"type":"Point","coordinates":[-73.12,-36.72]},"properties":{"NAME":"Talcahuano","POP_MAX":288074}},
{"type":"Feature","geometry":{"type":"Point","coordinates":[23.7,37.95]},"properties":{"NAME":"Piraeus","POP_MAX":466065}},
{"type":"Feature","geometry":{"type":"Point","coordinates":[22.95,39.37]},"properties":{"NAME":"Volos","POP_MAX":110632}},
{"type":"Feature","geometry":{"type":"Point","coordinates":[42.73,42.25]},"properties":{"NAME":"Kutaisi","POP_MAX":183945}},
{"type":"Feature","geometry":{"type":"Point","coordinates":[34.83,31.25]},"properties":{"NAME":"Beer Sheva","POP_MAX":206408}},
{"type":"Feature","geometry":{"type":"Point","coordinates":[52.82,29.8]},"properties":{"NAME":"Marv Dasht","POP_MAX":125000}},
{"type":"Feature","geometry":{"type":"Point","coordinates":[54.96,36.42]},"properties":{"NAME":"Shahrud","POP_MAX":131889}},
{"type":"Feature","geometry":{"type":"Point","coordinates":[51.65,35.32]},"properties":{"NAME":"Varamin","POP_MAX":179603}},
{"type":"Feature","geometry":{"type":"Point","coordinates":[49.3,31.98]},"properties":{"NAME":"Masjed Soleyman","POP_MAX":153663}},
{"type":"Feature","geometry":{"type":"Point","coordinates":[48.8,33.92]},"properties":{"NAME":"Borujerd","POP_MAX":251958}},
{"type":"Feature","geometry":{"type":"Point","coordinates":[47.71,30.39]},"properties":{"NAME":"Az Aubayr","POP_MAX":262219}},
{"type":"Feature","geometry":{"type":"Point","coordinates":[44.92,31.99]},"properties":{"NAME":"Ad Diwaniyah","POP_MAX":358408}},
{"type":"Feature","geometry":{"type":"Point","coordinates":[46.18,31.42]},"properties":{"NAME":"Ash Shatrah","POP_MAX":161949}},
{"type":"Feature","geometry":{"type":"Point","coordinates":[48.85,34.32]},"properties":{"NAME":"Malayer","POP_MAX":176573}},
{"type":"Feature","geometry":{"type":"Point","coordinates":[48.5,36.67]},"properties":{"NAME":"Zanjan","POP_MAX":357471}},
{"type":"Feature","geometry":{"type":"Point","coordinates":[45,37.53]},"properties":{"NAME":"Urmia","POP_MAX":577307}},
{"type":"Feature","geometry":{"type":"Point","coordinates":[47.06,38.48]},"properties":{"NAME":"Ahar","POP_MAX":103639}},
{"type":"Feature","geometry":{"type":"Point","coordinates":[47.02,35.3]},"properties":{"NAME":"Sanandaj","POP_MAX":349176}},
{"type":"Feature","geometry":{"type":"Point","coordinates":[58.82,36.22]},"properties":{"NAME":"Neyshabur","POP_MAX":221700}},
{"type":"Feature","geometry":{"type":"Point","coordinates":[57.32,37.47]},"properties":{"NAME":"Bojnurd","POP_MAX":208582}},
{"type":"Feature","geometry":{"type":"Point","coordinates":[55.73,29.47]},"properties":{"NAME":"Sirjan","POP_MAX":175000}},
{"type":"Feature","geometry":{"type":"Point","coordinates":[75.98,31.52]},"properties":{"NAME":"Hoshiarpur","POP_MAX":158142}},
{"type":"Feature","geometry":{"type":"Point","coordinates":[74.64,26.45]},"properties":{"NAME":"Ajmer","POP_MAX":589985}},
{"type":"Feature","geometry":{"type":"Point","coordinates":[78.05,27.6]},"properties":{"NAME":"Hathras","POP_MAX":126882}},
{"type":"Feature","geometry":{"type":"Point","coordinates":[80.68,27.55]},"properties":{"NAME":"Sitapur","POP_MAX":164435}},
{"type":"Feature","geometry":{"type":"Point","coordinates":[79.81,28.64]},"properties":{"NAME":"Pilibhit","POP_MAX":131008}},
{"type":"Feature","geometry":{"type":"Point","coordinates":[79.09,28.03]},"properties":{"NAME":"Budaun","POP_MAX":161555}},
{"type":"Feature","geometry":{"type":"Point","coordinates":[78.39,27.15]},"properties":{"NAME":"Firozabad","POP_MAX":306409}},
{"type":"Feature","geometry":{"type":"Point","coordinates":[77.67,27.5]},"properties":{"NAME":"Mathura","POP_MAX":330511}},
{"type":"Feature","geometry":{"type":"Point","coordinates":[77.85,28.41]},"properties":{"NAME":"Bulandshahr","POP_MAX":198612}},
{"type":"Feature","geometry":{"type":"Point","coordinates":[77.76,28.74]},"properties":{"NAME":"Hapur","POP_MAX":242920}},
{"type":"Feature","geometry":{"type":"Point","coordinates":[77.7,29.49]},"properties":{"NAME":"Muzaffarnagar","POP_MAX":349706}},
{"type":"Feature","geometry":{"type":"Point","coordinates":[43.3,33.42]},"properties":{"NAME":"Ar Ramadi","POP_MAX":295121}},
{"type":"Feature","geometry":{"type":"Point","coordinates":[-42.84,-5.11]},"properties":{"NAME":"Timon","POP_MAX":203157}},
{"type":"Feature","geometry":{"type":"Point","coordinates":[-45.94,-22.22]},"properties":{"NAME":"Pouso Alegre","POP_MAX":115201}},
{"type":"Feature","geometry":{"type":"Point","coordinates":[-43.77,-21.22]},"properties":{"NAME":"Barbacena","POP_MAX":122211}},
{"type":"Feature","geometry":{"type":"Point","coordinates":[-46.57,-21.78]},"properties":{"NAME":"Poços de Caldas","POP_MAX":146588}},
{"type":"Feature","geometry":{"type":"Point","coordinates":[-43.79,-20.67]},"properties":{"NAME":"Conselheiro Lafaiete","POP_MAX":111596}},
{"type":"Feature","geometry":{"type":"Point","coordinates":[-56.14,-15.65]},"properties":{"NAME":"Várzea Grande","POP_MAX":249752}},
{"type":"Feature","geometry":{"type":"Point","coordinates":[-51.18,-29.92]},"properties":{"NAME":"Canoas","POP_MAX":600000}},
{"type":"Feature","geometry":{"type":"Point","coordinates":[-52.44,-29.71]},"properties":{"NAME":"Santa Cruz do Sul","POP_MAX":113625}},
{"type":"Feature","geometry":{"type":"Point","coordinates":[-48.53,-25.53]},"properties":{"NAME":"Paranaguá","POP_MAX":141013}},
{"type":"Feature","geometry":{"type":"Point","coordinates":[-49.18,-25.57]},"properties":{"NAME":"São José dos Pinhais","POP_MAX":665063}},
{"type":"Feature","geometry":{"type":"Point","coordinates":[-51.48,-25.38]},"properties":{"NAME":"Guarapuava","POP_MAX":150850}},
{"type":"Feature","geometry":{"type":"Point","coordinates":[-51.47,-23.55]},"properties":{"NAME":"Apucarana","POP_MAX":107085}},
{"type":"Feature","geometry":{"type":"Point","coordinates":[-49.09,-26.92]},"properties":{"NAME":"Blumenau","POP_MAX":293949}},
{"type":"Feature","geometry":{"type":"Point","coordinates":[-49.1,-26.48]},"properties":{"NAME":"Jaraguá do Sul","POP_MAX":130130}},
{"type":"Feature","geometry":{"type":"Point","coordinates":[-40.35,-3.69]},"properties":{"NAME":"Sobral","POP_MAX":157996}},
{"type":"Feature","geometry":{"type":"Point","coordinates":[-35.84,-9.48]},"properties":{"NAME":"Rio Largo","POP_MAX":158545}},
{"type":"Feature","geometry":{"type":"Point","coordinates":[-41.13,-20.85]},"properties":{"NAME":"Cachoeiro de Itapemirim","POP_MAX":187019}},
{"type":"Feature","geometry":{"type":"Point","coordinates":[-44.17,-22.56]},"properties":{"NAME":"Barra Mansa","POP_MAX":169386}},
{"type":"Feature","geometry":{"type":"Point","coordinates":[-43.45,-22.76]},"properties":{"NAME":"Nova Iguaçu","POP_MAX":844583}},
{"type":"Feature","geometry":{"type":"Point","coordinates":[-43.31,-22.8]},"properties":{"NAME":"Duque de Caxias","POP_MAX":842890}},
{"type":"Feature","geometry":{"type":"Point","coordinates":[-43.11,-22.88]},"properties":{"NAME":"Niterói","POP_MAX":1500513}},
{"type":"Feature","geometry":{"type":"Point","coordinates":[-42.04,-22.89]},"properties":{"NAME":"Cabo Frio","POP_MAX":261721}},
{"type":"Feature","geometry":{"type":"Point","coordinates":[-41.79,-22.38]},"properties":{"NAME":"Macaé","POP_MAX":143029}},
{"type":"Feature","geometry":{"type":"Point","coordinates":[-82.4,42.97]},"properties":{"NAME":"Sarnia","POP_MAX":144172}},
{"type":"Feature","geometry":{"type":"Point","coordinates":[-78.85,43.88]},"properties":{"NAME":"Oshawa","POP_MAX":450963}},
{"type":"Feature","geometry":{"type":"Point","coordinates":[-81.25,42.97]},"properties":{"NAME":"London","POP_MAX":346765}},
{"type":"Feature","geometry":{"type":"Point","coordinates":[-80.5,43.45]},"properties":{"NAME":"Kitchener","POP_MAX":417001}},
{"type":"Feature","geometry":{"type":"Point","coordinates":[-71.9,45.4]},"properties":{"NAME":"Sherbrooke","POP_MAX":139652}},
{"type":"Feature","geometry":{"type":"Point","coordinates":[20.92,44.02]},"properties":{"NAME":"Kragujevac","POP_MAX":171197}},
{"type":"Feature","geometry":{"type":"Point","coordinates":[-68.49,-33.07]},"properties":{"NAME":"San Martín","POP_MAX":117399}},
{"type":"Feature","geometry":{"type":"Point","coordinates":[-66.28,-17.4]},"properties":{"NAME":"Quillacollo","POP_MAX":227052}},
{"type":"Feature","geometry":{"type":"Point","coordinates":[-65.58,-13.76]},"properties":{"NAME":"Santa Ana","POP_MAX":234478}},
{"type":"Feature","geometry":{"type":"Point","coordinates":[-60.24,-33.33]},"properties":{"NAME":"San Nicolas","POP_MAX":127742}},
{"type":"Feature","geometry":{"type":"Point","coordinates":[-58.81,-27.49]},"properties":{"NAME":"Corrientes","POP_MAX":340823}},
{"type":"Feature","geometry":{"type":"Point","coordinates":[-60.53,-31.73]},"properties":{"NAME":"Paraná","POP_MAX":262295}},
{"type":"Feature","geometry":{"type":"Point","coordinates":[-46.53,-23.65]},"properties":{"NAME":"Santo André","POP_MAX":662373}},
{"type":"Feature","geometry":{"type":"Point","coordinates":[-45.47,-22.92]},"properties":{"NAME":"Pindamonhangaba","POP_MAX":132218}},
{"type":"Feature","geometry":{"type":"Point","coordinates":[-47.56,-22.41]},"properties":{"NAME":"Rio Claro","POP_MAX":180147}},
{"type":"Feature","geometry":{"type":"Point","coordinates":[-46.53,-22.95]},"properties":{"NAME":"Bragança Paulista","POP_MAX":127676}},
{"type":"Feature","geometry":{"type":"Point","coordinates":[-46.88,-23.2]},"properties":{"NAME":"Jundiaí","POP_MAX":505548}},
{"type":"Feature","geometry":{"type":"Point","coordinates":[-45.88,-23.2]},"properties":{"NAME":"São José dos Campos","POP_MAX":753769}},
{"type":"Feature","geometry":{"type":"Point","coordinates":[-45.19,-22.82]},"properties":{"NAME":"Guaratinguetá","POP_MAX":203580}},
{"type":"Feature","geometry":{"type":"Point","coordinates":[-47.33,-22.75]},"properties":{"NAME":"Americana","POP_MAX":479472}},
{"type":"Feature","geometry":{"type":"Point","coordinates":[-47.64,-22.73]},"properties":{"NAME":"Piracicaba","POP_MAX":342209}},
{"type":"Feature","geometry":{"type":"Point","coordinates":[-47.89,-22.02]},"properties":{"NAME":"São Carlos","POP_MAX":205035}},
{"type":"Feature","geometry":{"type":"Point","coordinates":[-51.39,-22.12]},"properties":{"NAME":"Presidente Prudente","POP_MAX":209502}},
{"type":"Feature","geometry":{"type":"Point","coordinates":[-48.98,-21.14]},"properties":{"NAME":"Catanduva","POP_MAX":109612}},
{"type":"Feature","geometry":{"type":"Point","coordinates":[-48.58,-20.55]},"properties":{"NAME":"Barretos","POP_MAX":101220}},
{"type":"Feature","geometry":{"type":"Point","coordinates":[-49.95,-22.21]},"properties":{"NAME":"Marília","POP_MAX":212218}},
{"type":"Feature","geometry":{"type":"Point","coordinates":[-47.3,-23.26]},"properties":{"NAME":"Itu","POP_MAX":320170}},
{"type":"Feature","geometry":{"type":"Point","coordinates":[-48.04,-23.59]},"properties":{"NAME":"Itapetininga","POP_MAX":126243}},
{"type":"Feature","geometry":{"type":"Point","coordinates":[-35.02,-8.11]},"properties":{"NAME":"Jaboatao","POP_MAX":702621}},
{"type":"Feature","geometry":{"type":"Point","coordinates":[-34.85,-8]},"properties":{"NAME":"Olinda","POP_MAX":921840}},
{"type":"Feature","geometry":{"type":"Point","coordinates":[-35.03,-8.29]},"properties":{"NAME":"Cabo de Santo Agostinho","POP_MAX":146219}},
{"type":"Feature","geometry":{"type":"Point","coordinates":[-35.25,-7.85]},"properties":{"NAME":"Carpina","POP_MAX":165579}},
{"type":"Feature","geometry":{"type":"Point","coordinates":[20.08,41.12]},"properties":{"NAME":"Elbasan","POP_MAX":165010}},
{"type":"Feature","geometry":{"type":"Point","coordinates":[43.85,40.79]},"properties":{"NAME":"Gyumri","POP_MAX":148381}},
{"type":"Feature","geometry":{"type":"Point","coordinates":[3.7,51.03]},"properties":{"NAME":"Gent","POP_MAX":444336}},
{"type":"Feature","geometry":{"type":"Point","coordinates":[44.49,40.81]},"properties":{"NAME":"Vanadzor","POP_MAX":101098}},
{"type":"Feature","geometry":{"type":"Point","coordinates":[46.35,40.68]},"properties":{"NAME":"Ganca","POP_MAX":303268}},
{"type":"Feature","geometry":{"type":"Point","coordinates":[49.63,40.58]},"properties":{"NAME":"Sumqayt","POP_MAX":279159}},
{"type":"Feature","geometry":{"type":"Point","coordinates":[89.92,24.25]},"properties":{"NAME":"Tangail","POP_MAX":180144}},
{"type":"Feature","geometry":{"type":"Point","coordinates":[24.75,42.15]},"properties":{"NAME":"Plovdiv","POP_MAX":340494}},
{"type":"Feature","geometry":{"type":"Point","coordinates":[26.01,53.14]},"properties":{"NAME":"Baranavichy","POP_MAX":168772}},
{"type":"Feature","geometry":{"type":"Point","coordinates":[26.87,54.32]},"properties":{"NAME":"Maladzyechna","POP_MAX":101300}},
{"type":"Feature","geometry":{"type":"Point","coordinates":[91.87,24.9]},"properties":{"NAME":"Sylhet","POP_MAX":237000}},
{"type":"Feature","geometry":{"type":"Point","coordinates":[17.92,44.22]},"properties":{"NAME":"Zenica","POP_MAX":164423}},
{"type":"Feature","geometry":{"type":"Point","coordinates":[5.58,50.63]},"properties":{"NAME":"Liège","POP_MAX":749110}},
{"type":"Feature","geometry":{"type":"Point","coordinates":[35.1,31.54]},"properties":{"NAME":"Al Khalil","POP_MAX":280321}},
{"type":"Feature","geometry":{"type":"Point","coordinates":[16.18,54.2]},"properties":{"NAME":"Koszalin","POP_MAX":107450}},
{"type":"Feature","geometry":{"type":"Point","coordinates":[120.54,23.71]},"properties":{"NAME":"Douliou","POP_MAX":106653}},
{"type":"Feature","geometry":{"type":"Point","coordinates":[121.22,24.97]},"properties":{"NAME":"Zhongli","POP_MAX":1632616}},
{"type":"Feature","geometry":{"type":"Point","coordinates":[121.73,25.13]},"properties":{"NAME":"Keelung","POP_MAX":500000}},
{"type":"Feature","geometry":{"type":"Point","coordinates":[120.68,23.92]},"properties":{"NAME":"Nantou","POP_MAX":165000}},
{"type":"Feature","geometry":{"type":"Point","coordinates":[-55.56,-30.9]},"properties":{"NAME":"Rivera","POP_MAX":200000}},
{"type":"Feature","geometry":{"type":"Point","coordinates":[-92.47,44.02]},"properties":{"NAME":"Rochester","POP_MAX":108511}},
{"type":"Feature","geometry":{"type":"Point","coordinates":[-93.24,44.65]},"properties":{"NAME":"Lakeville","POP_MAX":261308}},
{"type":"Feature","geometry":{"type":"Point","coordinates":[-94.16,45.56]},"properties":{"NAME":"St. Cloud","POP_MAX":112794}},
{"type":"Feature","geometry":{"type":"Point","coordinates":[-158.02,21.5]},"properties":{"NAME":"Wahiawa","POP_MAX":174766}},
{"type":"Feature","geometry":{"type":"Point","coordinates":[-116.67,43.66]},"properties":{"NAME":"Caldwell","POP_MAX":132476}},
{"type":"Feature","geometry":{"type":"Point","coordinates":[-122.64,47.57]},"properties":{"NAME":"Bremerton","POP_MAX":126820}},
{"type":"Feature","geometry":{"type":"Point","coordinates":[-122.2,47.96]},"properties":{"NAME":"Everett","POP_MAX":486903}},
{"type":"Feature","geometry":{"type":"Point","coordinates":[-121.29,37.96]},"properties":{"NAME":"Stockton","POP_MAX":685306}},
{"type":"Feature","geometry":{"type":"Point","coordinates":[-118.14,34.16]},"properties":{"NAME":"Pasadena","POP_MAX":144618}},
{"type":"Feature","geometry":{"type":"Point","coordinates":[-119.32,36.33]},"properties":{"NAME":"Visalia","POP_MAX":121968}},
{"type":"Feature","geometry":{"type":"Point","coordinates":[-121.62,39.14]},"properties":{"NAME":"Yuba City","POP_MAX":116217}},
{"type":"Feature","geometry":{"type":"Point","coordinates":[-122.7,38.45]},"properties":{"NAME":"Santa Rosa","POP_MAX":231792}},
{"type":"Feature","geometry":{"type":"Point","coordinates":[-117.35,33.19]},"properties":{"NAME":"Oceanside","POP_MAX":609854}},
{"type":"Feature","geometry":{"type":"Point","coordinates":[-120.99,37.66]},"properties":{"NAME":"Modesto","POP_MAX":323386}},
{"type":"Feature","geometry":{"type":"Point","coordinates":[-117.83,33.68]},"properties":{"NAME":"Irvine","POP_MAX":3010232}},
{"type":"Feature","geometry":{"type":"Point","coordinates":[-116.53,33.78]},"properties":{"NAME":"Palm Springs","POP_MAX":390115}},
{"type":"Feature","geometry":{"type":"Point","coordinates":[-120.44,34.94]},"properties":{"NAME":"Santa Maria","POP_MAX":110705}},
{"type":"Feature","geometry":{"type":"Point","coordinates":[-105.06,40.56]},"properties":{"NAME":"Fort Collins","POP_MAX":228385}},
{"type":"Feature","geometry":{"type":"Point","coordinates":[-104.63,38.28]},"properties":{"NAME":"Pueblo","POP_MAX":112195}},
{"type":"Feature","geometry":{"type":"Point","coordinates":[-105.24,40.01]},"properties":{"NAME":"Boulder","POP_MAX":122274}},
{"type":"Feature","geometry":{"type":"Point","coordinates":[-106.78,32.31]},"properties":{"NAME":"Las Cruces","POP_MAX":115167}},
{"type":"Feature","geometry":{"type":"Point","coordinates":[-111.97,41.23]},"properties":{"NAME":"Ogden","POP_MAX":377224}},
{"type":"Feature","geometry":{"type":"Point","coordinates":[-94.16,36.06]},"properties":{"NAME":"Fayetteville","POP_MAX":151671}},
{"type":"Feature","geometry":{"type":"Point","coordinates":[-90.59,41.55]},"properties":{"NAME":"Davenport","POP_MAX":255738}},
{"type":"Feature","geometry":{"type":"Point","coordinates":[-95.86,41.26]},"properties":{"NAME":"Council Bluffs","POP_MAX":101805}},
{"type":"Feature","geometry":{"type":"Point","coordinates":[-90.51,38.78]},"properties":{"NAME":"St. Charles","POP_MAX":360485}},
{"type":"Feature","geometry":{"type":"Point","coordinates":[-92.33,38.95]},"properties":{"NAME":"Columbia","POP_MAX":398093}},
{"type":"Feature","geometry":{"type":"Point","coordinates":[-97.44,35.22]},"properties":{"NAME":"Norman","POP_MAX":113525}},
{"type":"Feature","geometry":{"type":"Point","coordinates":[-92.12,32.51]},"properties":{"NAME":"Monroe","POP_MAX":101724}},
{"type":"Feature","geometry":{"type":"Point","coordinates":[-98.16,26.3]},"properties":{"NAME":"Edinburg","POP_MAX":150000}},
{"type":"Feature","geometry":{"type":"Point","coordinates":[-97.73,31.12]},"properties":{"NAME":"Killeen","POP_MAX":137919}},
{"type":"Feature","geometry":{"type":"Point","coordinates":[-94.1,30.09]},"properties":{"NAME":"Beaumont","POP_MAX":111485}},
{"type":"Feature","geometry":{"type":"Point","coordinates":[-97.13,33.22]},"properties":{"NAME":"Denton","POP_MAX":176930}},
{"type":"Feature","geometry":{"type":"Point","coordinates":[-68.01,10.46]},"properties":{"NAME":"Puerto Cabello","POP_MAX":174000}},
{"type":"Feature","geometry":{"type":"Point","coordinates":[-69.2,9.58]},"properties":{"NAME":"Acarigua","POP_MAX":260921}},
{"type":"Feature","geometry":{"type":"Point","coordinates":[-72.9,41.33]},"properties":{"NAME":"New Haven","POP_MAX":846766}},
{"type":"Feature","geometry":{"type":"Point","coordinates":[-71.32,42.63]},"properties":{"NAME":"Lowell","POP_MAX":723629}},
{"type":"Feature","geometry":{"type":"Point","coordinates":[-71.8,42.27]},"properties":{"NAME":"Worcester","POP_MAX":287365}},
{"type":"Feature","geometry":{"type":"Point","coordinates":[-71.46,43]},"properties":{"NAME":"Manchester","POP_MAX":196566}},
{"type":"Feature","geometry":{"type":"Point","coordinates":[-87.54,33.23]},"properties":{"NAME":"Tuscaloosa","POP_MAX":121373}},
{"type":"Feature","geometry":{"type":"Point","coordinates":[-80.29,25.72]},"properties":{"NAME":"Coral Gables","POP_MAX":150000}},
{"type":"Feature","geometry":{"type":"Point","coordinates":[-81.98,26.6]},"properties":{"NAME":"Cape Coral","POP_MAX":132489}},
{"type":"Feature","geometry":{"type":"Point","coordinates":[-81.79,26.14]},"properties":{"NAME":"Naples","POP_MAX":262306}},
{"type":"Feature","geometry":{"type":"Point","coordinates":[-80.33,27.45]},"properties":{"NAME":"Fort Pierce","POP_MAX":228245}},
{"type":"Feature","geometry":{"type":"Point","coordinates":[-81.41,28.29]},"properties":{"NAME":"Kissimmee","POP_MAX":225494}},
{"type":"Feature","geometry":{"type":"Point","coordinates":[-82.14,29.19]},"properties":{"NAME":"Ocala","POP_MAX":141382}},
{"type":"Feature","geometry":{"type":"Point","coordinates":[-80.14,26.14]},"properties":{"NAME":"Fort Lauderdale","POP_MAX":2042042}},
{"type":"Feature","geometry":{"type":"Point","coordinates":[-83.38,33.96]},"properties":{"NAME":"Athens","POP_MAX":110301}},
{"type":"Feature","geometry":{"type":"Point","coordinates":[-83.63,32.85]},"properties":{"NAME":"Macon","POP_MAX":115592}},
{"type":"Feature","geometry":{"type":"Point","coordinates":[-84.98,32.47]},"properties":{"NAME":"Columbus","POP_MAX":217980}},
{"type":"Feature","geometry":{"type":"Point","coordinates":[-82.39,34.85]},"properties":{"NAME":"Greenville","POP_MAX":350954}},
{"type":"Feature","geometry":{"type":"Point","coordinates":[-88.2,40.11]},"properties":{"NAME":"Urbana","POP_MAX":144074}},
{"type":"Feature","geometry":{"type":"Point","coordinates":[-88.99,40.48]},"properties":{"NAME":"Bloomington","POP_MAX":128979}},
{"type":"Feature","geometry":{"type":"Point","coordinates":[-87.84,42.36]},"properties":{"NAME":"Waukegan","POP_MAX":200000}},
{"type":"Feature","geometry":{"type":"Point","coordinates":[-88.3,41.77]},"properties":{"NAME":"Aurora","POP_MAX":350000}},
{"type":"Feature","geometry":{"type":"Point","coordinates":[-90,38.53]},"properties":{"NAME":"Belleville","POP_MAX":143900}},
{"type":"Feature","geometry":{"type":"Point","coordinates":[-86.53,39.17]},"properties":{"NAME":"Bloomington","POP_MAX":100310}},
{"type":"Feature","geometry":{"type":"Point","coordinates":[-87.33,41.58]},"properties":{"NAME":"Gary","POP_MAX":591180}},
{"type":"Feature","geometry":{"type":"Point","coordinates":[-85.13,41.08]},"properties":{"NAME":"Fort Wayne","POP_MAX":299871}},
{"type":"Feature","geometry":{"type":"Point","coordinates":[-84.51,39.08]},"properties":{"NAME":"Covington","POP_MAX":585489}},
{"type":"Feature","geometry":{"type":"Point","coordinates":[-78.89,35.05]},"properties":{"NAME":"Fayetteville","POP_MAX":243306}},
{"type":"Feature","geometry":{"type":"Point","coordinates":[-82.55,35.6]},"properties":{"NAME":"Asheville","POP_MAX":142755}},
{"type":"Feature","geometry":{"type":"Point","coordinates":[-80.26,36.11]},"properties":{"NAME":"Winston-Salem","POP_MAX":281683}},
{"type":"Feature","geometry":{"type":"Point","coordinates":[-81.52,41.07]},"properties":{"NAME":"Akron","POP_MAX":703200}},
{"type":"Feature","geometry":{"type":"Point","coordinates":[-86.39,35.85]},"properties":{"NAME":"Murfreesboro","POP_MAX":115774}},
{"type":"Feature","geometry":{"type":"Point","coordinates":[-87.36,36.53]},"properties":{"NAME":"Clarksville","POP_MAX":132536}},
{"type":"Feature","geometry":{"type":"Point","coordinates":[-77.06,38.8]},"properties":{"NAME":"Alexandria","POP_MAX":127273}},
{"type":"Feature","geometry":{"type":"Point","coordinates":[-77.46,38.3]},"properties":{"NAME":"Fredericksburg","POP_MAX":133134}},
{"type":"Feature","geometry":{"type":"Point","coordinates":[-79.94,37.27]},"properties":{"NAME":"Roanoke","POP_MAX":198171}},
{"type":"Feature","geometry":{"type":"Point","coordinates":[-87.81,42.73]},"properties":{"NAME":"Racine","POP_MAX":131654}},
{"type":"Feature","geometry":{"type":"Point","coordinates":[-75.55,39.75]},"properties":{"NAME":"Wilmington","POP_MAX":161560}},
{"type":"Feature","geometry":{"type":"Point","coordinates":[-74.17,40.7]},"properties":{"NAME":"Newark","POP_MAX":280123}},
{"type":"Feature","geometry":{"type":"Point","coordinates":[-73.94,42.81]},"properties":{"NAME":"Schenectady","POP_MAX":149255}},
{"type":"Feature","geometry":{"type":"Point","coordinates":[-75.92,42.1]},"properties":{"NAME":"Binghamton","POP_MAX":139895}},
{"type":"Feature","geometry":{"type":"Point","coordinates":[-75.23,43.1]},"properties":{"NAME":"Utica","POP_MAX":105150}},
{"type":"Feature","geometry":{"type":"Point","coordinates":[-79.04,43.09]},"properties":{"NAME":"Niagara Falls","POP_MAX":153134}},
{"type":"Feature","geometry":{"type":"Point","coordinates":[-76.73,39.96]},"properties":{"NAME":"York","POP_MAX":218010}},
{"type":"Feature","geometry":{"type":"Point","coordinates":[-75.66,41.41]},"properties":{"NAME":"Scranton","POP_MAX":156196}},
{"type":"Feature","geometry":{"type":"Point","coordinates":[-80.08,42.13]},"properties":{"NAME":"Erie","POP_MAX":178182}},
{"type":"Feature","geometry":{"type":"Point","coordinates":[-75.88,41.25]},"properties":{"NAME":"Wilkes-Barre","POP_MAX":158913}},
{"type":"Feature","geometry":{"type":"Point","coordinates":[-64.72,10.13]},"properties":{"NAME":"Barcelona","POP_MAX":600954}},
{"type":"Feature","geometry":{"type":"Point","coordinates":[-64.26,8.89]},"properties":{"NAME":"El Tigre","POP_MAX":197440}},
{"type":"Feature","geometry":{"type":"Point","coordinates":[-66.97,10.6]},"properties":{"NAME":"Maiquetía","POP_MAX":315442}},
{"type":"Feature","geometry":{"type":"Point","coordinates":[-67.44,8.93]},"properties":{"NAME":"Calabozo","POP_MAX":117132}},
{"type":"Feature","geometry":{"type":"Point","coordinates":[-63.85,10.96]},"properties":{"NAME":"Porlamar","POP_MAX":196934}},
{"type":"Feature","geometry":{"type":"Point","coordinates":[-83.72,42.3]},"properties":{"NAME":"Ann Arbor","POP_MAX":265976}},
{"type":"Feature","geometry":{"type":"Point","coordinates":[-85.59,42.29]},"properties":{"NAME":"Kalamazoo","POP_MAX":183381}},
{"type":"Feature","geometry":{"type":"Point","coordinates":[-86.25,43.23]},"properties":{"NAME":"Muskegon","POP_MAX":101177}},
{"type":"Feature","geometry":{"type":"Point","coordinates":[-83.69,43.01]},"properties":{"NAME":"Flint","POP_MAX":295212}},
{"type":"Feature","geometry":{"type":"Point","coordinates":[-85.67,42.96]},"properties":{"NAME":"Grand Rapids","POP_MAX":535829}},
{"type":"Feature","geometry":{"type":"Point","coordinates":[-2.43,36.83]},"properties":{"NAME":"Almería","POP_MAX":179405}},
{"type":"Feature","geometry":{"type":"Point","coordinates":[-4.42,36.72]},"properties":{"NAME":"Málaga","POP_MAX":550058}},
{"type":"Feature","geometry":{"type":"Point","coordinates":[-3.8,37.77]},"properties":{"NAME":"Jaén","POP_MAX":116400}},
{"type":"Feature","geometry":{"type":"Point","coordinates":[-6.93,37.25]},"properties":{"NAME":"Huelva","POP_MAX":144174}},
{"type":"Feature","geometry":{"type":"Point","coordinates":[-1.87,39]},"properties":{"NAME":"Albacete","POP_MAX":158094}},
{"type":"Feature","geometry":{"type":"Point","coordinates":[-3.8,43.38]},"properties":{"NAME":"Santander","POP_MAX":208763}},
{"type":"Feature","geometry":{"type":"Point","coordinates":[-5.67,40.97]},"properties":{"NAME":"Salamanca","POP_MAX":162353}},
{"type":"Feature","geometry":{"type":"Point","coordinates":[-3.68,42.35]},"properties":{"NAME":"Burgos","POP_MAX":170183}},
{"type":"Feature","geometry":{"type":"Point","coordinates":[0.63,6.9]},"properties":{"NAME":"Kpalimé","POP_MAX":100479}},
{"type":"Feature","geometry":{"type":"Point","coordinates":[1.15,8.99]},"properties":{"NAME":"Sokodé","POP_MAX":117811}},
{"type":"Feature","geometry":{"type":"Point","coordinates":[11.1,33.51]},"properties":{"NAME":"Zarzis","POP_MAX":159161}},
{"type":"Feature","geometry":{"type":"Point","coordinates":[1.25,41.12]},"properties":{"NAME":"Tarragona","POP_MAX":126291}},
{"type":"Feature","geometry":{"type":"Point","coordinates":[9.85,37.29]},"properties":{"NAME":"Bizerte","POP_MAX":139843}},
{"type":"Feature","geometry":{"type":"Point","coordinates":[10.73,36.46]},"properties":{"NAME":"Nabeul","POP_MAX":115149}},
{"type":"Feature","geometry":{"type":"Point","coordinates":[10.1,33.9]},"properties":{"NAME":"Gabès","POP_MAX":219517}},
{"type":"Feature","geometry":{"type":"Point","coordinates":[8.78,34.42]},"properties":{"NAME":"Gafsa","POP_MAX":126803}},
{"type":"Feature","geometry":{"type":"Point","coordinates":[10.1,35.68]},"properties":{"NAME":"Qairouan","POP_MAX":144522}},
{"type":"Feature","geometry":{"type":"Point","coordinates":[35.89,34.88]},"properties":{"NAME":"Tartus","POP_MAX":162980}},
{"type":"Feature","geometry":{"type":"Point","coordinates":[39.02,35.93]},"properties":{"NAME":"Ar Raqqah","POP_MAX":177636}},
{"type":"Feature","geometry":{"type":"Point","coordinates":[36.73,35.15]},"properties":{"NAME":"Hamah","POP_MAX":460602}},
{"type":"Feature","geometry":{"type":"Point","coordinates":[40.13,35.33]},"properties":{"NAME":"Dayr az Zawr","POP_MAX":309141}},
{"type":"Feature","geometry":{"type":"Point","coordinates":[34.35,11.77]},"properties":{"NAME":"Ad Damazīn","POP_MAX":186051}},
{"type":"Feature","geometry":{"type":"Point","coordinates":[43.32,14.2]},"properties":{"NAME":"Zabīd","POP_MAX":152504}},
{"type":"Feature","geometry":{"type":"Point","coordinates":[43.6,15.69]},"properties":{"NAME":"Hajjah","POP_MAX":208287}},
{"type":"Feature","geometry":{"type":"Point","coordinates":[8.28,47.05]},"properties":{"NAME":"Luzern","POP_MAX":250000}},
{"type":"Feature","geometry":{"type":"Point","coordinates":[8.97,46]},"properties":{"NAME":"Lugano","POP_MAX":105388}},
{"type":"Feature","geometry":{"type":"Point","coordinates":[33.36,45.2]},"properties":{"NAME":"Yevpatoriya","POP_MAX":105223}},
{"type":"Feature","geometry":{"type":"Point","coordinates":[36.49,45.37]},"properties":{"NAME":"Kerch","POP_MAX":152195}},
{"type":"Feature","geometry":{"type":"Point","coordinates":[34.1,44.95]},"properties":{"NAME":"Simferopol","POP_MAX":358108}},
{"type":"Feature","geometry":{"type":"Point","coordinates":[32.6,46.63]},"properties":{"NAME":"Kherson","POP_MAX":320477}},
{"type":"Feature","geometry":{"type":"Point","coordinates":[31.89,51.05]},"properties":{"NAME":"Nizhyn","POP_MAX":116288}},
{"type":"Feature","geometry":{"type":"Point","coordinates":[26.25,50.62]},"properties":{"NAME":"Rivne","POP_MAX":255106}},
{"type":"Feature","geometry":{"type":"Point","coordinates":[25.92,48.31]},"properties":{"NAME":"Chernivtsi","POP_MAX":298251}},
{"type":"Feature","geometry":{"type":"Point","coordinates":[24.71,48.93]},"properties":{"NAME":"Ivano-Frankivsk","POP_MAX":241239}},
{"type":"Feature","geometry":{"type":"Point","coordinates":[25.58,49.54]},"properties":{"NAME":"Ternopil","POP_MAX":244768}},
{"type":"Feature","geometry":{"type":"Point","coordinates":[25.33,50.75]},"properties":{"NAME":"Lutsk","POP_MAX":213661}},
{"type":"Feature","geometry":{"type":"Point","coordinates":[32.07,49.43]},"properties":{"NAME":"Cherkasy","POP_MAX":297568}},
{"type":"Feature","geometry":{"type":"Point","coordinates":[32.26,48.5]},"properties":{"NAME":"Kirovohrad","POP_MAX":249454}},
{"type":"Feature","geometry":{"type":"Point","coordinates":[28.48,49.23]},"properties":{"NAME":"Vinnytsya","POP_MAX":352115}},
{"type":"Feature","geometry":{"type":"Point","coordinates":[34.41,47.57]},"properties":{"NAME":"Nikopol","POP_MAX":130500}},
{"type":"Feature","geometry":{"type":"Point","coordinates":[38.43,48.92]},"properties":{"NAME":"Lysychansk","POP_MAX":124421}},
{"type":"Feature","geometry":{"type":"Point","coordinates":[39.33,48.57]},"properties":{"NAME":"Luhansk","POP_MAX":452000}},
{"type":"Feature","geometry":{"type":"Point","coordinates":[34.57,49.57]},"properties":{"NAME":"Poltava","POP_MAX":317847}},
{"type":"Feature","geometry":{"type":"Point","coordinates":[33.43,49.08]},"properties":{"NAME":"Kremenchuk","POP_MAX":232742}},
{"type":"Feature","geometry":{"type":"Point","coordinates":[35.38,46.84]},"properties":{"NAME":"Melitopol","POP_MAX":158000}},
{"type":"Feature","geometry":{"type":"Point","coordinates":[55.94,25.79]},"properties":{"NAME":"Ras al Khaymah","POP_MAX":160849}},
{"type":"Feature","geometry":{"type":"Point","coordinates":[55.74,24.23]},"properties":{"NAME":"Al Ayn","POP_MAX":408733}},
{"type":"Feature","geometry":{"type":"Point","coordinates":[54.36,39.51]},"properties":{"NAME":"Balkanabat","POP_MAX":110827}},
{"type":"Feature","geometry":{"type":"Point","coordinates":[64.55,39.72]},"properties":{"NAME":"Kogon","POP_MAX":107566}},
{"type":"Feature","geometry":{"type":"Point","coordinates":[60.36,41.39]},"properties":{"NAME":"Khiwa","POP_MAX":149751}},
{"type":"Feature","geometry":{"type":"Point","coordinates":[65.35,40.11]},"properties":{"NAME":"Navoi","POP_MAX":214828}},
{"type":"Feature","geometry":{"type":"Point","coordinates":[66.83,39.06]},"properties":{"NAME":"Shahrisabz","POP_MAX":498545}},
{"type":"Feature","geometry":{"type":"Point","coordinates":[65.8,38.87]},"properties":{"NAME":"Qarshi","POP_MAX":386361}},
{"type":"Feature","geometry":{"type":"Point","coordinates":[70.94,40.54]},"properties":{"NAME":"Qoqon","POP_MAX":350000}},
{"type":"Feature","geometry":{"type":"Point","coordinates":[69.78,37.92]},"properties":{"NAME":"Kulob","POP_MAX":115164}},
{"type":"Feature","geometry":{"type":"Point","coordinates":[69,39.92]},"properties":{"NAME":"Uroteppa","POP_MAX":156621}},
{"type":"Feature","geometry":{"type":"Point","coordinates":[67.83,40.1]},"properties":{"NAME":"Jizzax","POP_MAX":235352}},
{"type":"Feature","geometry":{"type":"Point","coordinates":[70.15,41.03]},"properties":{"NAME":"Angren","POP_MAX":202070}},
{"type":"Feature","geometry":{"type":"Point","coordinates":[69.6,40.85]},"properties":{"NAME":"Olmaliq","POP_MAX":121207}},
{"type":"Feature","geometry":{"type":"Point","coordinates":[99.61,7.56]},"properties":{"NAME":"Trang","POP_MAX":147820}},
{"type":"Feature","geometry":{"type":"Point","coordinates":[101.29,6.55]},"properties":{"NAME":"Yala","POP_MAX":148140}},
{"type":"Feature","geometry":{"type":"Point","coordinates":[99.83,19.91]},"properties":{"NAME":"Chiang Rai","POP_MAX":117127}},
{"type":"Feature","geometry":{"type":"Point","coordinates":[99.48,18.29]},"properties":{"NAME":"Lampang","POP_MAX":204081}},
{"type":"Feature","geometry":{"type":"Point","coordinates":[100.27,16.83]},"properties":{"NAME":"Phitsanulok","POP_MAX":164017}},
{"type":"Feature","geometry":{"type":"Point","coordinates":[100.57,14.36]},"properties":{"NAME":"Ayutthaya","POP_MAX":145615}},
{"type":"Feature","geometry":{"type":"Point","coordinates":[100.53,14.02]},"properties":{"NAME":"Pathum Thani","POP_MAX":154412}},
{"type":"Feature","geometry":{"type":"Point","coordinates":[100.48,13.83]},"properties":{"NAME":"Nonthaburi","POP_MAX":258550}},
{"type":"Feature","geometry":{"type":"Point","coordinates":[99.82,13.54]},"properties":{"NAME":"Ratchaburi","POP_MAX":106996}},
{"type":"Feature","geometry":{"type":"Point","coordinates":[100.61,13.61]},"properties":{"NAME":"Samut Prakan","POP_MAX":388920}},
{"type":"Feature","geometry":{"type":"Point","coordinates":[107.1,20.96]},"properties":{"NAME":"Hong Gai","POP_MAX":172915}},
{"type":"Feature","geometry":{"type":"Point","coordinates":[107.32,21.04]},"properties":{"NAME":"Cẩm Phả","POP_MAX":135477}},
{"type":"Feature","geometry":{"type":"Point","coordinates":[100.93,13.16]},"properties":{"NAME":"Si Racha","POP_MAX":178916}},
{"type":"Feature","geometry":{"type":"Point","coordinates":[101,13.4]},"properties":{"NAME":"Chon Buri","POP_MAX":226618}},
{"type":"Feature","geometry":{"type":"Point","coordinates":[102.75,17.87]},"properties":{"NAME":"Nong Khai","POP_MAX":104505}},
{"type":"Feature","geometry":{"type":"Point","coordinates":[102.79,17.4]},"properties":{"NAME":"Udon Thani","POP_MAX":247231}},
{"type":"Feature","geometry":{"type":"Point","coordinates":[105.34,20.81]},"properties":{"NAME":"Hoa Binh","POP_MAX":105260}},
{"type":"Feature","geometry":{"type":"Point","coordinates":[105.51,21.14]},"properties":{"NAME":"Sơn Tây","POP_MAX":189547}},
{"type":"Feature","geometry":{"type":"Point","coordinates":[105.98,20.25]},"properties":{"NAME":"Ninh Bình","POP_MAX":130517}},
{"type":"Feature","geometry":{"type":"Point","coordinates":[105.43,21.33]},"properties":{"NAME":"Việt Trì","POP_MAX":350000}},
{"type":"Feature","geometry":{"type":"Point","coordinates":[105.9,18.33]},"properties":{"NAME":"Hà Tĩnh","POP_MAX":165396}},
{"type":"Feature","geometry":{"type":"Point","coordinates":[108.05,12.67]},"properties":{"NAME":"Buon Me Thuot","POP_MAX":349945}},
{"type":"Feature","geometry":{"type":"Point","coordinates":[108.42,11.93]},"properties":{"NAME":"Da Lat","POP_MAX":256019}},
{"type":"Feature","geometry":{"type":"Point","coordinates":[108.98,11.57]},"properties":{"NAME":"Phan Rang","POP_MAX":179773}},
{"type":"Feature","geometry":{"type":"Point","coordinates":[107.98,14.38]},"properties":{"NAME":"Kon Tum","POP_MAX":105489}},
{"type":"Feature","geometry":{"type":"Point","coordinates":[108.83,15.15]},"properties":{"NAME":"Quảng Ngãi","POP_MAX":250000}},
{"type":"Feature","geometry":{"type":"Point","coordinates":[107.08,10.36]},"properties":{"NAME":"Vung Tau","POP_MAX":248767}},
{"type":"Feature","geometry":{"type":"Point","coordinates":[108.1,10.93]},"properties":{"NAME":"Phan Thiet","POP_MAX":336846}},
{"type":"Feature","geometry":{"type":"Point","coordinates":[105.42,10.38]},"properties":{"NAME":"Long Xuyen","POP_MAX":350000}},
{"type":"Feature","geometry":{"type":"Point","coordinates":[105.09,10.02]},"properties":{"NAME":"Rạch Giá","POP_MAX":300000}},
{"type":"Feature","geometry":{"type":"Point","coordinates":[106.42,10.53]},"properties":{"NAME":"Tan An","POP_MAX":137498}},
{"type":"Feature","geometry":{"type":"Point","coordinates":[106.35,10.35]},"properties":{"NAME":"Mỹ Tho","POP_MAX":124143}},
{"type":"Feature","geometry":{"type":"Point","coordinates":[105.72,9.28]},"properties":{"NAME":"Bạc Liêu","POP_MAX":225000}},
{"type":"Feature","geometry":{"type":"Point","coordinates":[105.15,9.18]},"properties":{"NAME":"Cà Mau","POP_MAX":356636}},
{"type":"Feature","geometry":{"type":"Point","coordinates":[105.98,9.6]},"properties":{"NAME":"Sóc Trăng","POP_MAX":300000}},
{"type":"Feature","geometry":{"type":"Point","coordinates":[31.18,-10.2]},"properties":{"NAME":"Kasama","POP_MAX":200000}},
{"type":"Feature","geometry":{"type":"Point","coordinates":[27.85,-12.54]},"properties":{"NAME":"Chingola","POP_MAX":182015}},
{"type":"Feature","geometry":{"type":"Point","coordinates":[-0.98,37.6]},"properties":{"NAME":"Cartagena","POP_MAX":201274}},
{"type":"Feature","geometry":{"type":"Point","coordinates":[-5.83,43.35]},"properties":{"NAME":"Oviedo","POP_MAX":235651}},
{"type":"Feature","geometry":{"type":"Point","coordinates":[-6.97,38.88]},"properties":{"NAME":"Badajoz","POP_MAX":140133}},
{"type":"Feature","geometry":{"type":"Point","coordinates":[-2.43,42.47]},"properties":{"NAME":"Logroño","POP_MAX":143698}},
{"type":"Feature","geometry":{"type":"Point","coordinates":[-1.98,43.32]},"properties":{"NAME":"San Sebastián","POP_MAX":357468}},
{"type":"Feature","geometry":{"type":"Point","coordinates":[30.68,4.09]},"properties":{"NAME":"Yei","POP_MAX":185000}},
{"type":"Feature","geometry":{"type":"Point","coordinates":[32.98,14.25]},"properties":{"NAME":"El Manaqil","POP_MAX":151827}},
{"type":"Feature","geometry":{"type":"Point","coordinates":[33.42,16.68]},"properties":{"NAME":"Shendi","POP_MAX":186611}},
{"type":"Feature","geometry":{"type":"Point","coordinates":[-73.75,18.2]},"properties":{"NAME":"Les Cayes","POP_MAX":175457}},
{"type":"Feature","geometry":{"type":"Point","coordinates":[-72.68,19.45]},"properties":{"NAME":"Gonaïves","POP_MAX":166678}},
{"type":"Feature","geometry":{"type":"Point","coordinates":[-2.11,57.15]},"properties":{"NAME":"Aberdeen","POP_MAX":189364}},
{"type":"Feature","geometry":{"type":"Point","coordinates":[-3,56.47]},"properties":{"NAME":"Dundee","POP_MAX":151592}},
{"type":"Feature","geometry":{"type":"Point","coordinates":[-1.23,54.58]},"properties":{"NAME":"Middlesbrough","POP_MAX":416042}},
{"type":"Feature","geometry":{"type":"Point","coordinates":[-1.5,52.4]},"properties":{"NAME":"Coventry","POP_MAX":388271}},
{"type":"Feature","geometry":{"type":"Point","coordinates":[-3.53,50.7]},"properties":{"NAME":"Exeter","POP_MAX":113118}},
{"type":"Feature","geometry":{"type":"Point","coordinates":[0.12,52.2]},"properties":{"NAME":"Cambridge","POP_MAX":128488}},
{"type":"Feature","geometry":{"type":"Point","coordinates":[-0.33,53.75]},"properties":{"NAME":"Kingston upon Hull","POP_MAX":302296}},
{"type":"Feature","geometry":{"type":"Point","coordinates":[-1.07,53.95]},"properties":{"NAME":"York","POP_MAX":158947}},
{"type":"Feature","geometry":{"type":"Point","coordinates":[-3.05,53.83]},"properties":{"NAME":"Blackpool","POP_MAX":272792}},
{"type":"Feature","geometry":{"type":"Point","coordinates":[-4.16,50.39]},"properties":{"NAME":"Plymouth","POP_MAX":247297}},
{"type":"Feature","geometry":{"type":"Point","coordinates":[27.89,39.65]},"properties":{"NAME":"Balıkesir","POP_MAX":261516}},
{"type":"Feature","geometry":{"type":"Point","coordinates":[26.57,41.67]},"properties":{"NAME":"Edirne","POP_MAX":126470}},
{"type":"Feature","geometry":{"type":"Point","coordinates":[27.51,40.99]},"properties":{"NAME":"Tekirdağ","POP_MAX":122287}},
{"type":"Feature","geometry":{"type":"Point","coordinates":[29.93,40.78]},"properties":{"NAME":"İzmit","POP_MAX":466504}},
{"type":"Feature","geometry":{"type":"Point","coordinates":[30.55,38.75]},"properties":{"NAME":"Afyon","POP_MAX":156992}},
{"type":"Feature","geometry":{"type":"Point","coordinates":[29.08,37.77]},"properties":{"NAME":"Denizli","POP_MAX":372344}},
{"type":"Feature","geometry":{"type":"Point","coordinates":[27.44,38.63]},"properties":{"NAME":"Manisa","POP_MAX":243971}},
{"type":"Feature","geometry":{"type":"Point","coordinates":[38.28,37.77]},"properties":{"NAME":"Adıyaman","POP_MAX":223744}},
{"type":"Feature","geometry":{"type":"Point","coordinates":[38.3,38.37]},"properties":{"NAME":"Malatya","POP_MAX":461574}},
{"type":"Feature","geometry":{"type":"Point","coordinates":[34.88,36.92]},"properties":{"NAME":"Tarsus","POP_MAX":894318}},
{"type":"Feature","geometry":{"type":"Point","coordinates":[36.17,36.58]},"properties":{"NAME":"İskenderun","POP_MAX":297943}},
{"type":"Feature","geometry":{"type":"Point","coordinates":[37.87,41]},"properties":{"NAME":"Ordu","POP_MAX":155117}},
{"type":"Feature","geometry":{"type":"Point","coordinates":[37.03,39.75]},"properties":{"NAME":"Sivas","POP_MAX":264022}},
{"type":"Feature","geometry":{"type":"Point","coordinates":[41.29,39.92]},"properties":{"NAME":"Erzurum","POP_MAX":420691}},
{"type":"Feature","geometry":{"type":"Point","coordinates":[39.49,39.75]},"properties":{"NAME":"Erzincan","POP_MAX":129407}},
{"type":"Feature","geometry":{"type":"Point","coordinates":[40.23,37.92]},"properties":{"NAME":"Diyarbakır","POP_MAX":644763}},
{"type":"Feature","geometry":{"type":"Point","coordinates":[1.17,52.07]},"properties":{"NAME":"Ipswich","POP_MAX":143767}},
{"type":"Feature","geometry":{"type":"Point","coordinates":[1.3,52.63]},"properties":{"NAME":"Norwich","POP_MAX":190756}},
{"type":"Feature","geometry":{"type":"Point","coordinates":[81.7,7.72]},"properties":{"NAME":"Batticaloa","POP_MAX":129222}},
{"type":"Feature","geometry":{"type":"Point","coordinates":[80.4,9.4]},"properties":{"NAME":"Kilinochchi","POP_MAX":103717}},
{"type":"Feature","geometry":{"type":"Point","coordinates":[79.88,6.78]},"properties":{"NAME":"Moratuwa","POP_MAX":200000}},
{"type":"Feature","geometry":{"type":"Point","coordinates":[127.75,34.74]},"properties":{"NAME":"Yeosu","POP_MAX":341994}},
{"type":"Feature","geometry":{"type":"Point","coordinates":[128.73,36.57]},"properties":{"NAME":"Andong","POP_MAX":129319}},
{"type":"Feature","geometry":{"type":"Point","coordinates":[126.52,33.51]},"properties":{"NAME":"Jeju","POP_MAX":408364}},
{"type":"Feature","geometry":{"type":"Point","coordinates":[-0.17,50.83]},"properties":{"NAME":"Brighton","POP_MAX":503008}},
{"type":"Feature","geometry":{"type":"Point","coordinates":[-1.25,51.75]},"properties":{"NAME":"Oxford","POP_MAX":192796}},
{"type":"Feature","geometry":{"type":"Point","coordinates":[-0.42,51.88]},"properties":{"NAME":"Luton","POP_MAX":235958}},
{"type":"Feature","geometry":{"type":"Point","coordinates":[-1.08,50.8]},"properties":{"NAME":"Portsmouth","POP_MAX":442252}},
{"type":"Feature","geometry":{"type":"Point","coordinates":[-0.25,52.57]},"properties":{"NAME":"Peterborough","POP_MAX":140141}},
{"type":"Feature","geometry":{"type":"Point","coordinates":[-1.17,52.94]},"properties":{"NAME":"Nottingham","POP_MAX":825600}},
{"type":"Feature","geometry":{"type":"Point","coordinates":[-2.18,53]},"properties":{"NAME":"Stoke","POP_MAX":390801}},
{"type":"Feature","geometry":{"type":"Point","coordinates":[31.78,41.43]},"properties":{"NAME":"Zonguldak","POP_MAX":156918}},
{"type":"Feature","geometry":{"type":"Point","coordinates":[33.22,37.18]},"properties":{"NAME":"Karaman","POP_MAX":120399}},
{"type":"Feature","geometry":{"type":"Point","coordinates":[29.42,38.68]},"properties":{"NAME":"Uşak","POP_MAX":152862}},
{"type":"Feature","geometry":{"type":"Point","coordinates":[33.53,39.85]},"properties":{"NAME":"Kırıkkale","POP_MAX":211138}},
{"type":"Feature","geometry":{"type":"Point","coordinates":[41.14,37.89]},"properties":{"NAME":"Batman","POP_MAX":302074}},
{"type":"Feature","geometry":{"type":"Point","coordinates":[43.4,38.5]},"properties":{"NAME":"Van","POP_MAX":371713}},
{"type":"Feature","geometry":{"type":"Point","coordinates":[33.2,0.44]},"properties":{"NAME":"Jinja","POP_MAX":301619}},
{"type":"Feature","geometry":{"type":"Point","coordinates":[30.9,3.02]},"properties":{"NAME":"Arua","POP_MAX":250000}},
{"type":"Feature","geometry":{"type":"Point","coordinates":[32.46,0.06]},"properties":{"NAME":"Entebbe","POP_MAX":175128}},
{"type":"Feature","geometry":{"type":"Point","coordinates":[32.89,2.26]},"properties":{"NAME":"Lira","POP_MAX":135445}},
{"type":"Feature","geometry":{"type":"Point","coordinates":[34.17,1.09]},"properties":{"NAME":"Mbale","POP_MAX":402368}},
{"type":"Feature","geometry":{"type":"Point","coordinates":[34.17,0.71]},"properties":{"NAME":"Tororo","POP_MAX":150000}},
{"type":"Feature","geometry":{"type":"Point","coordinates":[18.22,46.08]},"properties":{"NAME":"Pécs","POP_MAX":186262}},
{"type":"Feature","geometry":{"type":"Point","coordinates":[17.63,47.7]},"properties":{"NAME":"Győr","POP_MAX":136081}},
{"type":"Feature","geometry":{"type":"Point","coordinates":[17.8,46.37]},"properties":{"NAME":"Kaposvár","POP_MAX":108528}},
{"type":"Feature","geometry":{"type":"Point","coordinates":[20.78,48.1]},"properties":{"NAME":"Miskolc","POP_MAX":247757}},
{"type":"Feature","geometry":{"type":"Point","coordinates":[20.15,46.25]},"properties":{"NAME":"Szeged","POP_MAX":187765}},
{"type":"Feature","geometry":{"type":"Point","coordinates":[21.63,47.53]},"properties":{"NAME":"Debrecen","POP_MAX":231286}},
{"type":"Feature","geometry":{"type":"Point","coordinates":[20.18,47.19]},"properties":{"NAME":"Szolnok","POP_MAX":109261}},
{"type":"Feature","geometry":{"type":"Point","coordinates":[33.64,-9.25]},"properties":{"NAME":"Tukuyu","POP_MAX":127570}},
{"type":"Feature","geometry":{"type":"Point","coordinates":[33.42,-3.66]},"properties":{"NAME":"Shinyanga","POP_MAX":107362}},
{"type":"Feature","geometry":{"type":"Point","coordinates":[31.8,-1.32]},"properties":{"NAME":"Bukoba","POP_MAX":100504}},
{"type":"Feature","geometry":{"type":"Point","coordinates":[29.61,-4.88]},"properties":{"NAME":"Kigoma","POP_MAX":164268}},
{"type":"Feature","geometry":{"type":"Point","coordinates":[35.69,-7.77]},"properties":{"NAME":"Iringa","POP_MAX":111820}},
{"type":"Feature","geometry":{"type":"Point","coordinates":[37.34,-3.34]},"properties":{"NAME":"Moshi","POP_MAX":721018}},
{"type":"Feature","geometry":{"type":"Point","coordinates":[33.8,-1.49]},"properties":{"NAME":"Musoma","POP_MAX":133156}},
{"type":"Feature","geometry":{"type":"Point","coordinates":[6.65,46.53]},"properties":{"NAME":"Lausanne","POP_MAX":265702}},
{"type":"Feature","geometry":{"type":"Point","coordinates":[7.59,47.58]},"properties":{"NAME":"Basel","POP_MAX":830000}},
{"type":"Feature","geometry":{"type":"Point","coordinates":[-0.48,38.35]},"properties":{"NAME":"Alicante","POP_MAX":315863}},
{"type":"Feature","geometry":{"type":"Point","coordinates":[-0.05,39.97]},"properties":{"NAME":"Castello","POP_MAX":180610}},
{"type":"Feature","geometry":{"type":"Point","coordinates":[28.42,12.69]},"properties":{"NAME":"En Nuhud","POP_MAX":108008}},
{"type":"Feature","geometry":{"type":"Point","coordinates":[29.74,-2.35]},"properties":{"NAME":"Nyanza","POP_MAX":225209}},
{"type":"Feature","geometry":{"type":"Point","coordinates":[23.83,44.33]},"properties":{"NAME":"Craiova","POP_MAX":304142}},
{"type":"Feature","geometry":{"type":"Point","coordinates":[15.65,46.54]},"properties":{"NAME":"Maribor","POP_MAX":114228}},
{"type":"Feature","geometry":{"type":"Point","coordinates":[21.22,45.76]},"properties":{"NAME":"Timișoara","POP_MAX":315053}},
{"type":"Feature","geometry":{"type":"Point","coordinates":[26.66,47.75]},"properties":{"NAME":"Botoșani","POP_MAX":114783}},
{"type":"Feature","geometry":{"type":"Point","coordinates":[23.58,47.66]},"properties":{"NAME":"Baia Mare","POP_MAX":136553}},
{"type":"Feature","geometry":{"type":"Point","coordinates":[24.56,46.56]},"properties":{"NAME":"Tirgu Mures","POP_MAX":149433}},
{"type":"Feature","geometry":{"type":"Point","coordinates":[24.88,44.86]},"properties":{"NAME":"Pitești","POP_MAX":171021}},
{"type":"Feature","geometry":{"type":"Point","coordinates":[25.61,45.65]},"properties":{"NAME":"Brașov","POP_MAX":311044}},
{"type":"Feature","geometry":{"type":"Point","coordinates":[26.04,44.95]},"properties":{"NAME":"Ploiești","POP_MAX":232542}},
{"type":"Feature","geometry":{"type":"Point","coordinates":[26.92,46.58]},"properties":{"NAME":"Bacău","POP_MAX":199668}},
{"type":"Feature","geometry":{"type":"Point","coordinates":[-80.68,-4.89]},"properties":{"NAME":"Sullana","POP_MAX":160789}},
{"type":"Feature","geometry":{"type":"Point","coordinates":[-70.03,-15.83]},"properties":{"NAME":"Puno","POP_MAX":116552}},
{"type":"Feature","geometry":{"type":"Point","coordinates":[-76.14,-13.42]},"properties":{"NAME":"Chincha Alta","POP_MAX":153076}},
{"type":"Feature","geometry":{"type":"Point","coordinates":[-55.76,-22.54]},"properties":{"NAME":"Pedro Juan Caballero","POP_MAX":102787}},
{"type":"Feature","geometry":{"type":"Point","coordinates":[-85.95,11.93]},"properties":{"NAME":"Granada‎","POP_MAX":105219}},
{"type":"Feature","geometry":{"type":"Point","coordinates":[-87.13,12.63]},"properties":{"NAME":"Chinandega","POP_MAX":139023}},
{"type":"Feature","geometry":{"type":"Point","coordinates":[-85.92,12.92]},"properties":{"NAME":"Matagalpa","POP_MAX":109089}},
{"type":"Feature","geometry":{"type":"Point","coordinates":[-8.42,40.2]},"properties":{"NAME":"Coimbra","POP_MAX":106582}},
{"type":"Feature","geometry":{"type":"Point","coordinates":[-16.24,14.66]},"properties":{"NAME":"Diourbel","POP_MAX":148024}},
{"type":"Feature","geometry":{"type":"Point","coordinates":[-16.93,14.81]},"properties":{"NAME":"Thiès","POP_MAX":293001}},
{"type":"Feature","geometry":{"type":"Point","coordinates":[-11.19,7.88]},"properties":{"NAME":"Kenema","POP_MAX":143137}},
{"type":"Feature","geometry":{"type":"Point","coordinates":[20.31,42.66]},